$GPGSV,3,1,11,01,53,298,25,08,47,185,24,10,19,057,27,22,45,115,23,1*6F
$GPGSV,3,2,11,27,18,161,23,32,43,073,31,03,31,239,,14,17,296,,1*69
$GPGSV,3,3,11,17,09,319,,21,80,323,,24,00,000,,1*5F
$GLGSV,3,1,09,69,56,188,23,67,12,032,23,68,61,050,23,82,02,127,,1*7C
$GLGSV,3,2,09,76,00,000,,75,09,307,,84,63,331,,83,44,116,,1*7B
$GLGSV,3,3,09,85,05,312,,1*49
$GAGSV,2,1,08,03,54,112,,05,27,046,,08,27,177,,13,46,299,,7*74
$GAGSV,2,2,08,15,73,084,,21,16,279,,27,05,230,,34,22,106,,7*7E
$GBGSV,3,1,11,02,05,104,,05,21,125,,06,28,067,,09,28,087,,1*77
$GBGSV,3,2,11,11,65,298,,12,56,143,,13,04,080,,14,08,216,,1*77
$GBGSV,3,3,11,16,26,059,,21,76,137,,22,34,050,,1*4C
$GPGSA,A,1,,,,,,,,,,,,,,,,*32
$GPVTG,,T,,M,,N,,K,N*2C
$GPRMC,,V,,,,,,,,,,N,V*29
$GPGGA,,,,,,0,,,,,,,,*66
$GNGSA,A,3,01,03,08,10,21,22,27,32,,,,,1.1,0.7,0.8,1*32
$GNGSA,A,3,67,68,69,83,,,,,,,,,1.1,0.7,0.8,2*36
$GNGSA,A,3,03,05,08,13,,,,,,,,,1.1,0.7,0.8,3*30
$GNVTG,93.1,T,91.8,M,39.9,N,73.9,K,A*38
$GNRMC,061013.00,A,4812.773795,N,01445.351457,E,39.9,93.1,181022,1.3,E,A,V*54
$GNGGA,061013.00,4812.773795,N,01445.351457,E,1,12,0.7,252.9,M,44.6,M,,*7B
$GPGSV,3,1,11,01,53,298,21,03,31,239,22,08,47,185,26,10,19,057,25,1*67
$GPGSV,3,2,11,14,17,296,18,17,09,319,18,21,80,323,18,22,45,115,26,1*6F
$GPGSV,3,3,11,27,18,161,20,32,43,073,33,24,00,000,,1*58
$GLGSV,3,1,09,75,09,307,17,69,56,188,26,83,44,116,19,67,12,032,25,1*72
$GLGSV,3,2,09,68,61,050,26,82,02,127,,76,00,000,,84,63,331,,1*7D
$GLGSV,3,3,09,85,05,312,,1*49
$GAGSV,2,1,08,03,54,112,,05,27,046,,08,27,177,,13,46,299,,7*74
$GAGSV,2,2,08,15,73,084,,21,16,279,,27,05,230,,34,22,106,,7*7E
$GBGSV,3,1,11,02,05,104,,05,21,125,,06,28,067,,09,28,087,,1*77
$GBGSV,3,2,11,11,65,298,,12,56,143,,13,04,080,,14,08,216,,1*77
$GBGSV,3,3,11,16,26,059,,21,76,137,,22,34,050,,1*4C
$GNGSA,A,3,01,03,08,10,14,17,21,22,27,32,,,0.9,0.6,0.7,1*36
$GNGSA,A,3,67,68,69,75,83,,,,,,,,0.9,0.6,0.7,2*33
$GNGSA,A,3,03,05,08,13,,,,,,,,,0.9,0.6,0.7,3*37
$GNVTG,90.0,T,88.7,M,38.5,N,71.2,K,A*39
$GNRMC,061014.00,A,4812.774169,N,01445.367487,E,38.5,90.0,181022,1.3,E,A,V*56
$GNGGA,061014.00,4812.774169,N,01445.367487,E,1,12,0.6,243.1,M,44.6,M,,*7F
$GPGSV,3,1,11,01,53,298,17,03,31,239,23,08,47,185,24,10,19,057,17,1*60
$GPGSV,3,2,11,14,17,296,18,17,09,319,16,21,80,323,19,22,45,115,27,1*61
$GPGSV,3,3,11,27,18,161,20,32,43,073,37,24,00,000,,1*5C
$GLGSV,3,1,09,75,09,307,20,69,56,188,29,83,44,116,19,67,12,032,19,1*76
$GLGSV,3,2,09,68,61,050,21,82,02,127,,76,00,000,,84,63,331,,1*7A
$GLGSV,3,3,09,85,05,312,,1*49
$GAGSV,2,1,08,03,54,112,23,05,27,046,22,13,46,299,20,15,73,084,24,7*71
$GAGSV,2,2,08,34,22,106,18,08,27,177,,21,16,279,,27,05,230,,7*77
$GBGSV,3,1,11,06,28,067,21,12,56,143,24,16,26,059,21,02,05,104,,1*74
$GBGSV,3,2,11,05,21,125,,09,28,087,,11,65,298,,13,04,080,,1*75
$GBGSV,3,3,11,14,08,216,,21,76,137,,22,34,050,,1*4B
$GNGSA,A,3,01,03,08,10,14,17,21,22,27,32,,,0.9,0.6,0.7,1*36
$GNGSA,A,3,67,68,69,75,83,,,,,,,,0.9,0.6,0.7,2*33
$GNGSA,A,3,03,05,08,13,15,,,,,,,,0.9,0.6,0.7,3*33
$GNGSA,A,3,06,12,16,,,,,,,,,,0.9,0.6,0.7,4*3E
$GNVTG,91.8,T,90.5,M,38.0,N,70.3,K,A*3E
$GNRMC,061015.00,A,4812.773126,N,01445.381604,E,38.0,91.8,181022,1.3,E,A,V*56
$GNGGA,061015.00,4812.773126,N,01445.381604,E,1,12,0.6,245.2,M,44.6,M,,*76
$GPGSV,3,1,11,01,53,298,17,03,31,239,16,08,47,185,21,10,19,057,21,1*66
$GPGSV,3,2,11,14,17,296,18,17,09,319,14,21,80,323,19,22,45,115,21,1*65
$GPGSV,3,3,11,27,18,161,20,32,43,073,37,24,00,000,,1*5C
$GLGSV,3,1,09,75,09,307,20,69,56,188,29,83,44,116,18,67,12,032,23,1*7E
$GLGSV,3,2,09,68,61,050,29,82,02,127,,76,00,000,,84,63,331,,1*72
$GLGSV,3,3,09,85,05,312,,1*49
$GAGSV,2,1,08,03,54,112,25,05,27,046,27,08,27,177,19,13,46,299,23,7*7F
$GAGSV,2,2,08,15,73,084,24,34,22,106,18,21,16,279,,27,05,230,,7*71
$GBGSV,3,1,11,06,28,067,20,12,56,143,24,16,26,059,21,21,76,137,24,1*76
$GBGSV,3,2,11,02,05,104,,05,21,125,,09,28,087,,11,65,298,,1*79
$GBGSV,3,3,11,13,04,080,,14,08,216,,22,34,050,,1*42
$GNGSA,A,3,01,03,08,10,14,17,21,22,27,32,,,0.9,0.6,0.7,1*36
$GNGSA,A,3,67,68,69,75,83,,,,,,,,0.9,0.6,0.7,2*33
$GNGSA,A,3,03,05,13,15,,,,,,,,,0.9,0.6,0.7,3*3B
$GNGSA,A,3,06,12,16,,,,,,,,,,0.9,0.6,0.7,4*3E
$GNVTG,90.8,T,89.5,M,38.5,N,71.4,K,A*34
$GNRMC,061016.00,A,4812.773515,N,01445.397420,E,38.5,90.8,181022,1.3,E,A,V*56
$GNGGA,061016.00,4812.773515,N,01445.397420,E,1,12,0.6,244.6,M,44.6,M,,*77
$GPGSV,3,1,11,01,53,298,20,03,31,239,16,08,47,185,21,10,19,057,21,1*62
$GPGSV,3,2,11,14,17,296,26,17,09,319,13,21,80,323,19,22,45,115,20,1*6E
$GPGSV,3,3,11,27,18,161,26,32,43,073,38,24,00,000,,1*55
$GLGSV,3,1,09,82,02,127,15,75,09,307,19,69,56,188,29,83,44,116,18,1*7E
$GLGSV,3,2,09,67,12,032,18,68,61,050,28,76,00,000,,84,63,331,,1*75
$GLGSV,3,3,09,85,05,312,,1*49
$GAGSV,2,1,08,03,54,112,22,05,27,046,27,08,27,177,20,13,46,299,25,7*74
$GAGSV,2,2,08,15,73,084,27,34,22,106,18,21,16,279,,27,05,230,,7*72
$GBGSV,3,1,11,06,28,067,18,11,65,298,19,12,56,143,26,16,26,059,21,1*76
$GBGSV,3,2,11,21,76,137,24,22,34,050,23,02,05,104,,05,21,125,,1*77
$GBGSV,3,3,11,09,28,087,,13,04,080,,14,08,216,,1*4C
$GNGSA,A,3,01,03,08,10,14,17,21,22,27,32,,,0.9,0.6,0.7,1*36
$GNGSA,A,3,67,68,69,75,83,,,,,,,,0.9,0.6,0.7,2*33
$GNGSA,A,3,03,05,13,15,,,,,,,,,0.9,0.6,0.7,3*3B
$GNGSA,A,3,06,12,16,,,,,,,,,,0.9,0.6,0.7,4*3E
$GNVTG,90.8,T,89.5,M,37.5,N,69.5,K,A*33
$GNRMC,061017.00,A,4812.772673,N,01445.412393,E,37.5,90.8,181022,1.3,E,A,V*5F
$GNGGA,061017.00,4812.772673,N,01445.412393,E,1,12,0.6,243.3,M,44.6,M,,*73
$GPGSV,3,1,11,01,53,298,19,03,31,239,17,08,47,185,21,10,19,057,17,1*6C
$GPGSV,3,2,11,14,17,296,24,17,09,319,13,21,80,323,18,22,45,115,19,1*67
$GPGSV,3,3,11,27,18,161,23,32,43,073,37,24,00,000,,1*5F
$GLGSV,3,1,09,82,02,127,18,75,09,307,19,69,56,188,29,83,44,116,18,1*73
$GLGSV,3,2,09,67,12,032,19,68,61,050,28,76,00,000,,84,63,331,,1*74
$GLGSV,3,3,09,85,05,312,,1*49
$GAGSV,2,1,08,03,54,112,23,05,27,046,26,08,27,177,22,13,46,299,24,7*77
$GAGSV,2,2,08,15,73,084,27,34,22,106,18,21,16,279,,27,05,230,,7*72
$GBGSV,3,1,11,06,28,067,17,11,65,298,21,12,56,143,25,16,26,059,23,1*73
$GBGSV,3,2,11,21,76,137,24,22,34,050,23,02,05,104,,05,21,125,,1*77
$GBGSV,3,3,11,09,28,087,,13,04,080,,14,08,216,,1*4C
$GNGSA,A,3,01,03,08,10,14,17,21,22,27,32,,,0.9,0.6,0.7,1*36
$GNGSA,A,3,67,68,69,75,83,,,,,,,,0.9,0.6,0.7,2*33
$GNGSA,A,3,03,05,08,13,15,,,,,,,,0.9,0.6,0.7,3*33
$GNGSA,A,3,06,11,12,16,,,,,,,,,0.9,0.6,0.7,4*3E
$GNVTG,91.2,T,89.9,M,39.1,N,72.5,K,A*34
$GNRMC,061018.00,A,4812.772517,N,01445.429152,E,39.1,91.2,181022,1.3,E,A,V*57
$GNGGA,061018.00,4812.772517,N,01445.429152,E,1,12,0.6,245.7,M,44.6,M,,*78
$GPGSV,3,1,11,01,53,298,19,03,31,239,17,08,47,185,16,10,19,057,16,1*69
$GPGSV,3,2,11,14,17,296,22,17,09,319,13,21,80,323,22,22,45,115,16,1*67
$GPGSV,3,3,11,27,18,161,24,32,43,073,36,24,00,000,,1*59
$GLGSV,3,1,09,82,02,127,17,75,09,307,19,69,56,188,26,83,44,116,19,1*72
$GLGSV,3,2,09,67,12,032,18,68,61,050,27,76,00,000,,84,63,331,,1*7A
$GLGSV,3,3,09,85,05,312,,1*49
$GAGSV,2,1,08,03,54,112,22,05,27,046,27,08,27,177,25,13,46,299,25,7*71
$GAGSV,2,2,08,15,73,084,29,34,22,106,16,21,16,279,,27,05,230,,7*72
$GBGSV,3,1,11,06,28,067,17,11,65,298,19,12,56,143,24,16,26,059,20,1*7A
$GBGSV,3,2,11,21,76,137,25,22,34,050,23,02,05,104,,05,21,125,,1*76
$GBGSV,3,3,11,09,28,087,,13,04,080,,14,08,216,,1*4C
$GNGSA,A,3,01,03,08,10,14,17,21,22,27,32,,,0.9,0.6,0.7,1*36
$GNGSA,A,3,67,68,69,75,83,,,,,,,,0.9,0.6,0.7,2*33
$GNGSA,A,3,03,05,08,13,15,,,,,,,,0.9,0.6,0.7,3*33
$GNGSA,A,3,06,11,12,16,,,,,,,,,0.9,0.6,0.7,4*3E
$GNVTG,91.2,T,89.9,M,40.4,N,74.8,K,A*34
$GNRMC,061019.00,A,4812.772364,N,01445.446668,E,40.4,91.2,181022,1.3,E,A,V*58
$GNGGA,061019.00,4812.772364,N,01445.446668,E,1,12,0.6,246.2,M,44.6,M,,*7A
$GNGSA,A,3,01,03,08,10,14,21,22,27,32,,,,0.9,0.6,0.6,1*31
$GNGSA,A,3,67,68,69,,,,,,,,,,0.9,0.6,0.6,2*3B
$GNGSA,A,3,03,05,08,13,15,34,,,,,,,0.9,0.6,0.6,3*35
$GNGSA,A,3,06,11,12,14,16,,,,,,,,0.9,0.6,0.6,4*3A
$GNVTG,92.2,T,90.9,M,40.3,N,74.6,K,A*36
$GNRMC,061020.00,A,4812.772513,N,01445.463400,E,40.3,92.2,181022,1.3,E,A,V*5B
$GNGGA,061020.00,4812.772513,N,01445.463400,E,1,12,0.6,247.4,M,44.6,M,,*7A
$GPGSV,3,1,11,01,53,298,18,03,31,239,26,08,47,185,21,10,19,057,16,1*6E
$GPGSV,3,2,11,14,17,296,25,17,09,319,13,21,80,323,23,22,45,115,16,1*61
$GPGSV,3,3,11,27,18,161,24,32,43,073,37,24,00,000,,1*58
$GLGSV,3,1,09,82,02,127,17,75,09,307,19,69,56,188,29,83,44,116,22,1*75
$GLGSV,3,2,09,67,12,032,18,68,61,050,25,76,00,000,,84,63,331,,1*78
$GLGSV,3,3,09,85,05,312,,1*49
$GAGSV,2,1,08,03,54,112,25,05,27,046,28,08,27,177,26,13,46,299,26,7*79
$GAGSV,2,2,08,15,73,084,30,27,05,230,18,34,22,106,21,21,16,279,,7*77
$GBGSV,3,1,11,06,28,067,15,09,28,087,17,11,65,298,20,12,56,143,26,1*77
$GBGSV,3,2,11,14,08,216,21,16,26,059,23,21,76,137,29,22,34,050,18,1*75
$GBGSV,3,3,11,02,05,104,,05,21,125,,13,04,080,,1*4A
$GNGSA,A,3,01,03,08,10,14,21,22,27,32,,,,0.9,0.6,0.6,1*31
$GNGSA,A,3,67,68,69,83,,,,,,,,,0.9,0.6,0.6,2*30
$GNGSA,A,3,03,05,08,13,15,34,,,,,,,0.9,0.6,0.6,3*35
$GNGSA,A,3,11,12,14,16,,,,,,,,,0.9,0.6,0.6,4*3C
$GNVTG,91.6,T,90.3,M,38.1,N,70.6,K,A*32
$GNRMC,061021.00,A,4812.772179,N,01445.477596,E,38.1,91.6,181022,1.3,E,A,V*53
$GNGGA,061021.00,4812.772179,N,01445.477596,E,1,12,0.6,245.4,M,44.6,M,,*7A
$GPGSV,3,1,11,01,53,298,19,03,31,239,26,08,47,185,23,10,19,057,26,1*6E
$GPGSV,3,2,11,14,17,296,23,17,09,319,13,21,80,323,23,22,45,115,13,1*62
$GPGSV,3,3,11,27,18,161,20,32,43,073,35,24,00,000,,1*5E
$GLGSV,3,1,09,82,02,127,17,75,09,307,19,69,56,188,29,83,44,116,21,1*76
$GLGSV,3,2,09,67,12,032,25,68,61,050,26,76,00,000,,84,63,331,,1*75
$GLGSV,3,3,09,85,05,312,,1*49
$GAGSV,2,1,08,03,54,112,24,05,27,046,29,08,27,177,29,13,46,299,26,7*76
$GAGSV,2,2,08,15,73,084,31,27,05,230,18,34,22,106,21,21,16,279,,7*76
$GBGSV,3,1,11,06,28,067,18,09,28,087,17,11,65,298,18,12,56,143,23,1*74
$GBGSV,3,2,11,14,08,216,21,16,26,059,19,22,34,050,23,02,05,104,,1*7A
$GBGSV,3,3,11,05,21,125,,13,04,080,,21,76,137,,1*4F
$GNGSA,A,3,01,03,08,10,14,21,22,27,32,,,,0.9,0.6,0.6,1*31
$GNGSA,A,3,67,68,69,83,,,,,,,,,0.9,0.6,0.6,2*30
$GNGSA,A,3,03,05,08,13,15,34,,,,,,,0.9,0.6,0.6,3*35
$GNGSA,A,3,06,11,12,14,16,,,,,,,,0.9,0.6,0.6,4*3A
$GNVTG,93.0,T,91.7,M,39.2,N,72.6,K,A*33
$GNRMC,061022.00,A,4812.773452,N,01445.490010,E,39.2,93.0,181022,1.3,E,A,V*59
$GNGGA,061022.00,4812.773452,N,01445.490010,E,1,12,0.6,244.1,M,44.5,M,,*71
$GNGSA,A,3,01,03,08,10,14,21,22,27,32,,,,0.8,0.6,0.6,1*30
$GNGSA,A,3,67,68,69,83,,,,,,,,,0.8,0.6,0.6,2*31
$GNGSA,A,3,03,05,08,13,15,34,,,,,,,0.8,0.6,0.6,3*34
$GNGSA,A,3,06,11,12,13,14,16,,,,,,,0.8,0.6,0.6,4*39
$GNVTG,94.0,T,92.7,M,38.7,N,71.7,K,A*31
$GNRMC,061023.00,A,4812.774029,N,01445.506226,E,38.7,94.0,181022,1.3,E,A,V*5D
$GNGGA,061023.00,4812.774029,N,01445.506226,E,1,12,0.6,245.8,M,44.5,M,,*7E
$GPGSV,3,1,11,01,53,298,18,03,31,239,26,08,47,185,29,10,19,057,29,1*6A
$GPGSV,3,2,11,14,17,296,24,17,09,319,13,21,80,323,24,22,45,115,21,1*63
$GPGSV,3,3,11,27,18,161,16,32,43,073,33,24,00,000,,1*5D
$GLGSV,3,1,09,82,02,127,17,76,00,000,16,75,09,307,19,69,56,188,32,1*74
$GLGSV,3,2,09,83,44,116,20,67,12,032,21,68,61,050,24,84,63,331,,1*7D
$GLGSV,3,3,09,85,05,312,,1*49
$GAGSV,2,1,08,03,54,112,18,05,27,046,31,08,27,177,25,13,46,299,25,7*7F
$GAGSV,2,2,08,15,73,084,32,27,05,230,18,34,22,106,21,21,16,279,,7*75
$GBGSV,3,1,11,06,28,067,21,09,28,087,15,11,65,298,19,12,56,143,22,1*7C
$GBGSV,3,2,11,13,04,080,15,14,08,216,15,16,26,059,23,22,34,050,27,1*78
$GBGSV,3,3,11,02,05,104,,05,21,125,,21,76,137,,1*43
$GNGSA,A,3,01,03,08,10,14,21,22,27,32,,,,0.8,0.5,0.6,1*33
$GNGSA,A,3,67,68,69,76,83,,,,,,,,0.8,0.5,0.6,2*33
$GNGSA,A,3,03,05,08,13,15,34,,,,,,,0.8,0.5,0.6,3*37
$GNGSA,A,3,06,09,11,12,13,14,16,,,,,,0.8,0.5,0.6,4*33
$GNVTG,95.4,T,94.1,M,38.4,N,71.2,K,A*32
$GNRMC,061024.00,A,4812.772471,N,01445.522698,E,38.4,95.4,181022,1.3,E,A,V*54
$GNGGA,061024.00,4812.772471,N,01445.522698,E,1,12,0.5,245.4,M,44.5,M,,*7E
$GPGSV,3,1,11,01,53,298,20,03,31,239,27,08,47,185,30,10,19,057,31,1*61
$GPGSV,3,2,11,14,17,296,21,17,09,319,13,21,80,323,24,22,45,115,24,1*63
$GPGSV,3,3,11,27,18,161,16,32,43,073,30,24,00,000,,1*5E
$GLGSV,3,1,09,82,02,127,17,76,00,000,29,75,09,307,19,69,56,188,32,1*78
$GLGSV,3,2,09,83,44,116,19,67,12,032,20,68,61,050,25,84,63,331,,1*77
$GLGSV,3,3,09,85,05,312,,1*49
$GAGSV,2,1,08,03,54,112,19,05,27,046,30,08,27,177,25,13,46,299,26,7*7C
$GAGSV,2,2,08,15,73,084,32,27,05,230,18,34,22,106,20,21,16,279,,7*74
$GBGSV,3,1,11,06,28,067,20,09,28,087,15,11,65,298,20,12,56,143,20,1*75
$GBGSV,3,2,11,13,04,080,15,14,08,216,15,16,26,059,25,22,34,050,28,1*71
$GBGSV,3,3,11,02,05,104,,05,21,125,,21,76,137,,1*43
$GNGSA,A,3,01,03,08,10,14,21,22,27,32,,,,0.8,0.5,0.6,1*33
$GNGSA,A,3,67,68,69,76,83,,,,,,,,0.8,0.5,0.6,2*33
$GNGSA,A,3,03,05,08,13,15,34,,,,,,,0.8,0.5,0.6,3*37
$GNGSA,A,3,06,09,11,12,13,14,16,,,,,,0.8,0.5,0.6,4*33
$GNVTG,96.7,T,95.4,M,38.2,N,70.8,K,A*3B
$GNRMC,061025.00,A,4812.771424,N,01445.538756,E,38.2,96.7,181022,1.3,E,A,V*58
$GNGGA,061025.00,4812.771424,N,01445.538756,E,1,12,0.5,245.5,M,44.5,M,,*75
$GPGSV,3,1,11,01,53,298,21,03,31,239,28,08,47,185,29,10,19,057,31,1*67
$GPGSV,3,2,11,14,17,296,21,17,09,319,12,21,80,323,25,22,45,115,26,1*61
$GPGSV,3,3,11,27,18,161,14,32,43,073,27,24,00,000,,1*5A
$GLGSV,3,1,09,82,02,127,17,76,00,000,25,75,09,307,19,69,56,188,31,1*77
$GLGSV,3,2,09,83,44,116,19,67,12,032,21,68,61,050,26,84,63,331,,1*75
$GLGSV,3,3,09,85,05,312,,1*49
$GAGSV,2,1,08,03,54,112,21,05,27,046,31,08,27,177,22,13,46,299,27,7*70
$GAGSV,2,2,08,15,73,084,34,27,05,230,18,34,22,106,23,21,16,279,,7*71
$GBGSV,3,1,11,06,28,067,22,09,28,087,17,11,65,298,21,12,56,143,21,1*75
$GBGSV,3,2,11,13,04,080,15,14,08,216,15,16,26,059,27,22,34,050,30,1*7A
$GBGSV,3,3,11,02,05,104,,05,21,125,,21,76,137,,1*43
$GNGSA,A,3,01,03,08,10,14,17,21,22,27,32,,,0.8,0.5,0.6,1*35
$GNGSA,A,3,67,68,69,76,83,,,,,,,,0.8,0.5,0.6,2*33
$GNGSA,A,3,03,05,08,13,15,34,,,,,,,0.8,0.5,0.6,3*37
$GNGSA,A,3,06,09,11,12,13,14,16,,,,,,0.8,0.5,0.6,4*33
$GNVTG,97.8,T,96.5,M,37.6,N,69.6,K,A*3A
$GNRMC,061026.00,A,4812.770293,N,01445.554449,E,37.6,97.8,181022,1.3,E,A,V*52
$GNGGA,061026.00,4812.770293,N,01445.554449,E,1,12,0.5,244.7,M,44.5,M,,*79
$GPGSV,3,1,11,01,53,298,24,03,31,239,24,08,47,185,30,10,19,057,28,1*6E
$GPGSV,3,2,11,14,17,296,21,17,09,319,12,21,80,323,26,22,45,115,25,1*61
$GPGSV,3,3,11,27,18,161,19,32,43,073,26,24,00,000,,1*56
$GLGSV,3,1,09,82,02,127,17,76,00,000,20,75,09,307,19,69,56,188,30,1*73
$GLGSV,3,2,09,83,44,116,19,67,12,032,27,68,61,050,22,84,63,331,,1*77
$GLGSV,3,3,09,85,05,312,,1*49
$GAGSV,2,1,08,03,54,112,18,05,27,046,30,08,27,177,29,13,46,299,28,7*7F
$GAGSV,2,2,08,15,73,084,33,27,05,230,18,34,22,106,22,21,16,279,,7*77
$GBGSV,3,1,11,06,28,067,18,09,28,087,17,11,65,298,19,12,56,143,18,1*7D
$GBGSV,3,2,11,13,04,080,15,14,08,216,15,16,26,059,26,22,34,050,30,1*7B
$GBGSV,3,3,11,02,05,104,,05,21,125,,21,76,137,,1*43
$GNGSA,A,3,01,03,08,10,14,17,21,22,27,32,,,0.8,0.5,0.6,1*35
$GNGSA,A,3,67,68,69,76,83,,,,,,,,0.8,0.5,0.6,2*33
$GNGSA,A,3,03,05,08,13,15,34,,,,,,,0.8,0.5,0.6,3*37
$GNGSA,A,3,06,09,11,12,13,14,16,,,,,,0.8,0.5,0.6,4*33
$GNVTG,98.5,T,97.2,M,37.2,N,68.8,K,A*35
$GNRMC,061027.00,A,4812.768863,N,01445.569651,E,37.2,98.5,181022,1.3,E,A,V*5C
$GNGGA,061027.00,4812.768863,N,01445.569651,E,1,12,0.5,242.1,M,44.5,M,,*71
$GPGSV,3,1,11,01,53,298,27,03,31,239,25,08,47,185,26,10,19,057,24,1*67
$GPGSV,3,2,11,14,17,296,21,17,09,319,12,21,80,323,26,22,45,115,24,1*60
$GPGSV,3,3,11,27,18,161,19,32,43,073,29,24,00,000,,1*59
$GLGSV,3,1,09,82,02,127,17,76,00,000,19,75,09,307,19,69,56,188,27,1*7F
$GLGSV,3,2,09,83,44,116,21,67,12,032,21,68,61,050,20,84,63,331,,1*78
$GLGSV,3,3,09,85,05,312,,1*49
$GAGSV,2,1,08,03,54,112,20,05,27,046,29,08,27,177,20,13,46,299,27,7*7A
$GAGSV,2,2,08,15,73,084,33,27,05,230,18,34,22,106,25,21,16,279,,7*70
$GBGSV,3,1,11,06,28,067,19,09,28,087,21,11,65,298,17,12,56,143,22,1*7E
$GBGSV,3,2,11,13,04,080,15,14,08,216,15,16,26,059,26,02,05,104,,1*78
$GBGSV,3,3,11,05,21,125,,21,76,137,,22,34,050,,1*43
$GNGSA,A,3,01,03,08,10,14,17,21,22,27,32,,,0.8,0.5,0.6,1*35
$GNGSA,A,3,67,68,69,76,83,,,,,,,,0.8,0.5,0.6,2*33
$GNGSA,A,3,03,05,08,13,15,34,,,,,,,0.8,0.5,0.6,3*37
$GNGSA,A,3,06,09,11,12,13,14,16,,,,,,0.8,0.5,0.6,4*33
$GNVTG,98.9,T,97.6,M,37.0,N,68.5,K,A*32
$GNRMC,061028.00,A,4812.767828,N,01445.584534,E,37.0,98.9,181022,1.3,E,A,V*5E
$GNGGA,061028.00,4812.767828,N,01445.584534,E,1,12,0.5,241.9,M,44.5,M,,*76
$GPGSV,3,1,11,01,53,298,21,03,31,239,18,08,47,185,27,10,19,057,21,1*6B
$GPGSV,3,2,11,14,17,296,21,17,09,319,12,21,80,323,23,22,45,115,21,1*60
$GPGSV,3,3,11,27,18,161,19,32,43,073,21,24,00,000,,1*51
$GLGSV,3,1,09,82,02,127,17,76,00,000,19,75,09,307,19,69,56,188,27,1*7F
$GLGSV,3,2,09,83,44,116,17,67,12,032,18,68,61,050,20,84,63,331,,1*77
$GLGSV,3,3,09,85,05,312,,1*49
$GAGSV,2,1,08,03,54,112,20,05,27,046,24,08,27,177,25,13,46,299,24,7*71
$GAGSV,2,2,08,15,73,084,29,27,05,230,18,34,22,106,20,21,16,279,,7*7E
$GBGSV,3,1,11,06,28,067,19,09,28,087,21,11,65,298,17,12,56,143,18,1*77
$GBGSV,3,2,11,13,04,080,15,14,08,216,15,16,26,059,23,02,05,104,,1*7D
$GBGSV,3,3,11,05,21,125,,21,76,137,,22,34,050,,1*43
$GNGSA,A,3,01,03,08,10,14,17,21,22,27,32,,,0.9,0.6,0.6,1*37
$GNGSA,A,3,67,68,69,76,83,,,,,,,,0.9,0.6,0.6,2*31
$GNGSA,A,3,03,05,08,13,15,34,,,,,,,0.9,0.6,0.6,3*35
$GNGSA,A,3,06,09,11,12,16,,,,,,,,0.9,0.6,0.6,4*36
$GNVTG,99.3,T,98.0,M,36.6,N,67.8,K,A*35
$GNRMC,061029.00,A,4812.766239,N,01445.599256,E,36.6,99.3,181022,1.3,E,A,V*57
$GNGGA,061029.00,4812.766239,N,01445.599256,E,1,12,0.6,242.2,M,44.5,M,,*78
$GPGSV,3,1,11,01,53,298,22,03,31,239,21,08,47,185,26,10,19,057,19,1*68
$GPGSV,3,2,11,14,17,296,21,17,09,319,12,21,80,323,22,22,45,115,21,1*61
$GPGSV,3,3,11,27,18,161,19,32,43,073,25,24,00,000,,1*55
$GLGSV,3,1,09,82,02,127,17,76,00,000,19,75,09,307,19,69,56,188,25,1*7D
$GLGSV,3,2,09,83,44,116,19,67,12,032,23,68,61,050,17,84,63,331,,1*75
$GLGSV,3,3,09,85,05,312,,1*49
$GAGSV,2,1,08,03,54,112,15,05,27,046,25,08,27,177,24,13,46,299,24,7*77
$GAGSV,2,2,08,15,73,084,30,27,05,230,18,34,22,106,20,21,16,279,,7*76
$GBGSV,3,1,11,06,28,067,15,09,28,087,16,11,65,298,17,12,56,143,19,1*7E
$GBGSV,3,2,11,13,04,080,15,14,08,216,15,16,26,059,24,02,05,104,,1*7A
$GBGSV,3,3,11,05,21,125,,21,76,137,,22,34,050,,1*43
$GNGSA,A,3,01,03,08,10,14,17,21,22,27,32,,,0.9,0.6,0.6,1*37
$GNGSA,A,3,67,68,69,76,83,,,,,,,,0.9,0.6,0.6,2*31
$GNGSA,A,3,03,05,08,13,15,34,,,,,,,0.9,0.6,0.6,3*35
$GNGSA,A,3,06,09,11,12,16,,,,,,,,0.9,0.6,0.6,4*36
$GNVTG,99.8,T,98.5,M,36.7,N,68.0,K,A*3D
$GNRMC,061030.00,A,4812.764858,N,01445.614058,E,36.7,99.8,181022,1.3,E,A,V*50
$GNGGA,061030.00,4812.764858,N,01445.614058,E,1,12,0.6,242.2,M,44.5,M,,*75
$GPGSV,3,1,11,01,53,298,25,03,31,239,20,08,47,185,30,10,19,057,19,1*69
$GPGSV,3,2,11,14,17,296,21,17,09,319,12,21,80,323,24,22,45,115,21,1*67
$GPGSV,3,3,11,27,18,161,14,32,43,073,26,24,00,000,,1*5B
$GLGSV,3,1,09,82,02,127,17,76,00,000,19,75,09,307,19,69,56,188,28,1*70
$GLGSV,3,2,09,84,63,331,10,83,44,116,21,67,12,032,23,68,61,050,20,1*7B
$GLGSV,3,3,09,85,05,312,,1*49
$GAGSV,2,1,08,03,54,112,15,05,27,046,21,08,27,177,28,13,46,299,25,7*7E
$GAGSV,2,2,08,15,73,084,31,27,05,230,18,34,22,106,23,21,16,279,,7*74
$GBGSV,3,1,11,06,28,067,15,09,28,087,18,11,65,298,15,12,56,143,19,1*72
$GBGSV,3,2,11,13,04,080,15,14,08,216,15,16,26,059,22,02,05,104,,1*7C
$GBGSV,3,3,11,05,21,125,,21,76,137,,22,34,050,,1*43
$GNGSA,A,3,01,03,08,10,17,21,22,27,32,,,,0.9,0.6,0.6,1*32
$GNGSA,A,3,67,68,69,76,83,84,,,,,,,0.9,0.6,0.6,2*3D
$GNGSA,A,3,03,05,08,13,15,34,,,,,,,0.9,0.6,0.6,3*35
$GNGSA,A,3,06,09,11,12,16,,,,,,,,0.9,0.6,0.6,4*36
$GNVTG,101.6,T,100.3,M,37.0,N,68.6,K,A*35
$GNRMC,061031.00,A,4812.762982,N,01445.629381,E,37.0,101.6,181022,1.3,E,A,V*60
$GNGGA,061031.00,4812.762982,N,01445.629381,E,1,12,0.6,242.6,M,44.5,M,,*79
$GPGSV,3,1,11,01,53,298,29,03,31,239,24,08,47,185,34,10,19,057,19,1*65
$GPGSV,3,2,11,14,17,296,16,21,80,323,26,22,45,115,19,27,18,161,30,1*64
$GPGSV,3,3,11,32,43,073,34,17,09,319,,24,00,000,,1*53
$GLGSV,3,1,09,82,02,127,17,76,00,000,19,75,09,307,19,69,56,188,33,1*7A
$GLGSV,3,2,09,84,63,331,10,83,44,116,24,67,12,032,17,68,61,050,24,1*7D
$GLGSV,3,3,09,85,05,312,,1*49
$GAGSV,2,1,08,03,54,112,20,05,27,046,20,08,27,177,32,13,46,299,26,7*71
$GAGSV,2,2,08,15,73,084,33,27,05,230,18,34,22,106,23,21,16,279,,7*76
$GBGSV,3,1,11,06,28,067,17,09,28,087,23,11,65,298,21,12,56,143,24,1*71
$GBGSV,3,2,11,13,04,080,15,14,08,216,15,16,26,059,22,02,05,104,,1*7C
$GBGSV,3,3,11,05,21,125,,21,76,137,,22,34,050,,1*43
$GNGSA,A,3,01,03,08,10,14,21,22,27,32,,,,0.9,0.6,0.7,1*30
$GNGSA,A,3,67,68,69,76,83,84,,,,,,,0.9,0.6,0.7,2*3C
$GNGSA,A,3,03,05,08,13,15,34,,,,,,,0.9,0.6,0.7,3*34
$GNGSA,A,3,06,09,11,12,16,,,,,,,,0.9,0.6,0.7,4*37
$GNVTG,103.5,T,102.2,M,36.7,N,68.0,K,A*37
$GNRMC,061032.00,A,4812.761304,N,01445.643635,E,36.7,103.5,181022,1.3,E,A,V*65
$GNGGA,061032.00,4812.761304,N,01445.643635,E,1,12,0.6,243.3,M,44.5,M,,*7F
$GNGSA,A,3,01,03,08,10,14,21,22,27,32,,,,0.9,0.6,0.7,1*30
$GNGSA,A,3,67,68,69,76,83,84,,,,,,,0.9,0.6,0.7,2*3C
$GNGSA,A,3,03,05,08,13,15,34,,,,,,,0.9,0.6,0.7,3*34
$GNGSA,A,3,06,09,11,12,16,,,,,,,,0.9,0.6,0.7,4*37
$GNVTG,105.1,T,103.8,M,37.9,N,70.1,K,A*39
$GNRMC,061033.00,A,4812.758830,N,01445.658604,E,37.9,105.1,181022,1.3,E,A,V*67
$GNGGA,061033.00,4812.758830,N,01445.658604,E,1,12,0.6,243.8,M,44.5,M,,*7B
$GPGSV,3,1,11,01,53,298,30,03,31,239,24,08,47,185,30,10,19,057,27,1*64
$GPGSV,3,2,11,14,17,296,26,17,09,319,20,21,80,323,23,22,45,115,28,1*6F
$GPGSV,3,3,11,27,18,161,28,32,43,073,34,24,00,000,,1*57
$GLGSV,3,1,09,82,02,127,15,76,00,000,19,75,09,307,19,69,56,188,36,1*7D
$GLGSV,3,2,09,84,63,331,10,83,44,116,27,67,12,032,18,68,61,050,30,1*74
$GLGSV,3,3,09,85,05,312,,1*49
$GAGSV,2,1,08,03,54,112,25,05,27,046,26,08,27,177,29,13,46,299,28,7*76
$GAGSV,2,2,08,15,73,084,34,21,16,279,23,27,05,230,18,34,22,106,21,7*72
$GBGSV,3,1,11,06,28,067,23,09,28,087,20,11,65,298,23,12,56,143,25,1*76
$GBGSV,3,2,11,13,04,080,15,14,08,216,15,16,26,059,23,02,05,104,,1*7D
$GBGSV,3,3,11,05,21,125,,21,76,137,,22,34,050,,1*43
$GNGSA,A,3,01,03,08,10,14,17,21,22,27,32,,,0.9,0.6,0.7,1*36
$GNGSA,A,3,67,68,69,83,84,,,,,,,,0.9,0.6,0.7,2*3D
$GNGSA,A,3,03,05,08,13,15,34,,,,,,,0.9,0.6,0.7,3*34
$GNGSA,A,3,06,09,11,12,16,,,,,,,,0.9,0.6,0.7,4*37
$GNVTG,105.8,T,104.5,M,38.9,N,72.0,K,A*36
$GNRMC,061034.00,A,4812.755987,N,01445.674188,E,38.9,105.8,181022,1.3,E,A,V*6B
$GNGGA,061034.00,4812.755987,N,01445.674188,E,1,12,0.6,243.5,M,44.5,M,,*7C
$GPGSV,3,1,11,01,53,298,30,03,31,239,24,08,47,185,28,10,19,057,26,1*6C
$GPGSV,3,2,11,14,17,296,27,17,09,319,19,21,80,323,23,22,45,115,27,1*6B
$GPGSV,3,3,11,27,18,161,26,32,43,073,34,24,00,000,,1*59
$GLGSV,3,1,09,82,02,127,17,76,00,000,19,75,09,307,10,69,56,188,36,1*76
$GLGSV,3,2,09,84,63,331,10,83,44,116,26,67,12,032,18,68,61,050,30,1*75
$GLGSV,3,3,09,85,05,312,,1*49
$GAGSV,2,1,08,03,54,112,26,05,27,046,25,08,27,177,28,13,46,299,28,7*77
$GAGSV,2,2,08,15,73,084,33,21,16,279,24,27,05,230,18,34,22,106,16,7*76
$GBGSV,3,1,11,06,28,067,23,09,28,087,20,11,65,298,23,12,56,143,24,1*77
$GBGSV,3,2,11,13,04,080,15,14,08,216,15,16,26,059,25,02,05,104,,1*7B
$GBGSV,3,3,11,05,21,125,,21,76,137,,22,34,050,,1*43
$GNGSA,A,3,01,03,08,10,14,17,21,22,27,32,,,0.9,0.6,0.7,1*36
$GNGSA,A,3,67,68,69,83,84,,,,,,,,0.9,0.6,0.7,2*3D
$GNGSA,A,3,03,05,08,13,15,34,,,,,,,0.9,0.6,0.7,3*34
$GNGSA,A,3,06,09,11,12,16,,,,,,,,0.9,0.6,0.7,4*37
$GNVTG,106.1,T,104.8,M,40.3,N,74.6,K,A*34
$GNRMC,061035.00,A,4812.752977,N,01445.690303,E,40.3,106.1,181022,1.3,E,A,V*66
$GNGGA,061035.00,4812.752977,N,01445.690303,E,1,12,0.6,242.7,M,44.5,M,,*7D
$GPGSV,3,1,11,01,53,298,32,03,31,239,26,08,47,185,28,10,19,057,29,1*63
$GPGSV,3,2,11,14,17,296,27,17,09,319,21,21,80,323,25,22,45,115,28,1*69
$GPGSV,3,3,11,27,18,161,27,32,43,073,35,24,00,000,,1*59
$GLGSV,3,1,09,82,02,127,19,76,00,000,19,75,09,307,10,69,56,188,36,1*78
$GLGSV,3,2,09,84,63,331,10,83,44,116,28,67,12,032,14,68,61,050,31,1*76
$GLGSV,3,3,09,85,05,312,,1*49
$GAGSV,2,1,08,03,54,112,27,05,27,046,26,08,27,177,28,13,46,299,29,7*74
$GAGSV,2,2,08,15,73,084,34,21,16,279,24,27,05,230,18,34,22,106,16,7*71
$GBGSV,3,1,11,06,28,067,26,09,28,087,22,11,65,298,24,12,56,143,26,1*75
$GBGSV,3,2,11,13,04,080,15,14,08,216,15,16,26,059,27,02,05,104,,1*79
$GBGSV,3,3,11,05,21,125,,21,76,137,,22,34,050,,1*43
$GNGSA,A,3,01,03,08,10,14,17,21,22,27,32,,,0.9,0.6,0.7,1*36
$GNGSA,A,3,67,68,69,83,84,,,,,,,,0.9,0.6,0.7,2*3D
$GNGSA,A,3,03,05,08,13,15,34,,,,,,,0.9,0.6,0.7,3*34
$GNGSA,A,3,06,09,11,12,16,,,,,,,,0.9,0.6,0.7,4*37
$GNVTG,106.2,T,104.9,M,42.0,N,77.8,K,A*3A
$GNRMC,061036.00,A,4812.749750,N,01445.707200,E,42.0,106.2,181022,1.3,E,A,V*6B
$GNGGA,061036.00,4812.749750,N,01445.707200,E,1,12,0.6,242.6,M,44.5,M,,*73
$GPGSV,3,1,11,01,53,298,32,03,31,239,27,08,47,185,28,10,19,057,28,1*63
$GPGSV,3,2,11,14,17,296,26,17,09,319,24,21,80,323,26,22,45,115,28,1*6E
$GPGSV,3,3,11,27,18,161,28,32,43,073,38,24,00,000,,1*5B
$GLGSV,3,1,09,82,02,127,19,76,00,000,19,75,09,307,16,69,56,188,36,1*7E
$GLGSV,3,2,09,84,63,331,10,83,44,116,26,67,12,032,17,68,61,050,28,1*73
$GLGSV,3,3,09,85,05,312,,1*49
$GAGSV,2,1,08,03,54,112,28,05,27,046,24,08,27,177,28,13,46,299,28,7*78
$GAGSV,2,2,08,15,73,084,34,21,16,279,22,27,05,230,18,34,22,106,16,7*77
$GBGSV,3,1,11,06,28,067,25,09,28,087,22,11,65,298,23,12,56,143,23,1*74
$GBGSV,3,2,11,13,04,080,15,14,08,216,15,16,26,059,25,02,05,104,,1*7B
$GBGSV,3,3,11,05,21,125,,21,76,137,,22,34,050,,1*43
$GNGSA,A,3,01,03,08,10,14,17,21,22,27,32,,,0.9,0.6,0.7,1*36
$GNGSA,A,3,67,68,69,83,,,,,,,,,0.9,0.6,0.7,2*31
$GNGSA,A,3,03,05,08,13,15,34,,,,,,,0.9,0.6,0.7,3*34
$GNGSA,A,3,06,09,11,12,16,,,,,,,,0.9,0.6,0.7,4*37
$GNVTG,106.4,T,105.1,M,43.7,N,80.9,K,A*3A
$GNRMC,061037.00,A,4812.746528,N,01445.724420,E,43.7,106.4,181022,1.3,E,A,V*6D
$GNGGA,061037.00,4812.746528,N,01445.724420,E,1,12,0.6,242.4,M,44.5,M,,*77
$GPGSV,3,1,11,01,53,298,32,03,31,239,26,08,47,185,30,10,19,057,30,1*62
$GPGSV,3,2,11,14,17,296,25,17,09,319,24,21,80,323,27,22,45,115,26,1*62
$GPGSV,3,3,11,27,18,161,28,32,43,073,39,24,00,000,,1*5A
$GLGSV,3,1,09,82,02,127,14,76,00,000,19,75,09,307,19,69,56,188,35,1*7F
$GLGSV,3,2,09,84,63,331,10,83,44,116,26,67,12,032,20,68,61,050,22,1*7D
$GLGSV,3,3,09,85,05,312,,1*49
$GAGSV,2,1,08,03,54,112,26,05,27,046,24,08,27,177,29,13,46,299,29,7*76
$GAGSV,2,2,08,15,73,084,33,21,16,279,23,27,05,230,18,34,22,106,15,7*72
$GBGSV,3,1,11,06,28,067,25,09,28,087,21,11,65,298,21,12,56,143,18,1*7D
$GBGSV,3,2,11,13,04,080,16,14,08,216,16,16,26,059,25,02,05,104,,1*7B
$GBGSV,3,3,11,05,21,125,,21,76,137,,22,34,050,,1*43
$GNGSA,A,3,01,03,08,10,14,17,21,22,27,32,,,0.9,0.6,0.7,1*36
$GNGSA,A,3,67,68,69,83,,,,,,,,,0.9,0.6,0.7,2*31
$GNGSA,A,3,03,05,08,13,15,34,,,,,,,0.9,0.6,0.7,3*34
$GNGSA,A,3,06,09,11,12,16,,,,,,,,0.9,0.6,0.7,4*37
$GNVTG,106.4,T,105.1,M,45.2,N,83.7,K,A*34
$GNRMC,061038.00,A,4812.743170,N,01445.742589,E,45.2,106.4,181022,1.3,E,A,V*6F
$GNGGA,061038.00,4812.743170,N,01445.742589,E,1,12,0.6,242.4,M,44.5,M,,*76
$GPGSV,3,1,11,01,53,298,31,03,31,239,25,08,47,185,32,10,19,057,29,1*68
$GPGSV,3,2,11,14,17,296,24,17,09,319,22,21,80,323,27,22,45,115,24,1*67
$GPGSV,3,3,11,27,18,161,27,32,43,073,39,24,00,000,,1*55
$GLGSV,3,1,09,82,02,127,20,76,00,000,19,75,09,307,20,69,56,188,35,1*72
$GLGSV,3,2,09,84,63,331,10,83,44,116,25,67,12,032,20,68,61,050,27,1*7B
$GLGSV,3,3,09,85,05,312,,1*49
$GAGSV,2,1,08,03,54,112,24,05,27,046,26,08,27,177,30,13,46,299,27,7*70
$GAGSV,2,2,08,15,73,084,32,21,16,279,23,27,05,230,18,34,22,106,21,7*74
$GBGSV,3,1,11,06,28,067,26,09,28,087,21,11,65,298,20,12,56,143,18,1*7F
$GBGSV,3,2,11,13,04,080,19,14,08,216,18,16,26,059,25,02,05,104,,1*7A
$GBGSV,3,3,11,05,21,125,,21,76,137,,22,34,050,,1*43
$GNGSA,A,3,01,03,08,10,14,17,21,22,27,32,,,0.9,0.6,0.6,1*37
$GNGSA,A,3,67,68,69,75,83,,,,,,,,0.9,0.6,0.6,2*32
$GNGSA,A,3,03,05,08,13,15,34,,,,,,,0.9,0.6,0.6,3*35
$GNGSA,A,3,06,09,11,12,16,,,,,,,,0.9,0.6,0.6,4*36
$GNVTG,105.7,T,104.4,M,46.5,N,86.2,K,A*34
$GNRMC,061039.00,A,4812.739510,N,01445.761174,E,46.5,105.7,181022,1.3,E,A,V*62
$GNGGA,061039.00,4812.739510,N,01445.761174,E,1,12,0.6,242.1,M,44.5,M,,*7A
$GPGSV,3,1,11,01,53,298,31,03,31,239,24,08,47,185,33,10,19,057,26,1*67
$GPGSV,3,2,11,14,17,296,26,17,09,319,26,21,80,323,26,22,45,115,22,1*66
$GPGSV,3,3,11,27,18,161,29,32,43,073,39,24,00,000,,1*5B
$GLGSV,3,1,09,82,02,127,17,76,00,000,19,75,09,307,21,69,56,188,36,1*74
$GLGSV,3,2,09,84,63,331,10,83,44,116,24,67,12,032,19,68,61,050,30,1*76
$GLGSV,3,3,09,85,05,312,,1*49
$GAGSV,2,1,08,03,54,112,21,05,27,046,27,08,27,177,32,13,46,299,28,7*79
$GAGSV,2,2,08,15,73,084,32,21,16,279,22,27,05,230,18,34,22,106,24,7*70
$GBGSV,3,1,11,06,28,067,25,09,28,087,22,11,65,298,19,12,56,143,18,1*75
$GBGSV,3,2,11,13,04,080,19,14,08,216,18,16,26,059,26,02,05,104,,1*79
$GBGSV,3,3,11,05,21,125,,21,76,137,,22,34,050,,1*43
$GNGSA,A,3,01,03,08,10,14,17,21,22,27,32,,,0.9,0.6,0.6,1*37
$GNGSA,A,3,67,68,69,75,83,,,,,,,,0.9,0.6,0.6,2*32
$GNGSA,A,3,03,05,08,13,15,34,,,,,,,0.9,0.6,0.6,3*35
$GNGSA,A,3,06,09,11,12,16,,,,,,,,0.9,0.6,0.6,4*36
$GNVTG,104.7,T,103.4,M,48.2,N,89.2,K,A*34
$GNRMC,061040.00,A,4812.736111,N,01445.780623,E,48.2,104.7,181022,1.3,E,A,V*64
$GNGGA,061040.00,4812.736111,N,01445.780623,E,1,12,0.6,242.0,M,44.5,M,,*75
$GNGSA,A,3,01,03,08,10,14,17,21,22,27,32,,,0.9,0.6,0.6,1*37
$GNGSA,A,3,67,68,69,75,83,,,,,,,,0.9,0.6,0.6,2*32
$GNGSA,A,3,03,05,08,13,15,34,,,,,,,0.9,0.6,0.6,3*35
$GNGSA,A,3,06,09,11,12,16,,,,,,,,0.9,0.6,0.6,4*36
$GNVTG,104.1,T,102.8,M,49.8,N,92.2,K,A*3E
$GNRMC,061041.00,A,4812.732572,N,01445.800785,E,49.8,104.1,181022,1.3,E,A,V*67
$GNGGA,061041.00,4812.732572,N,01445.800785,E,1,12,0.6,242.0,M,44.5,M,,*7B
$GPGSV,3,1,11,01,53,298,32,03,31,239,21,08,47,185,34,10,19,057,19,1*6A
$GPGSV,3,2,11,14,17,296,26,17,09,319,27,21,80,323,27,22,45,115,22,1*66
$GPGSV,3,3,11,27,18,161,30,32,43,073,37,24,00,000,,1*5D
$GLGSV,3,1,09,82,02,127,17,76,00,000,19,75,09,307,22,69,56,188,37,1*76
$GLGSV,3,2,09,84,63,331,12,83,44,116,23,67,12,032,20,68,61,050,31,1*78
$GLGSV,3,3,09,85,05,312,,1*49
$GAGSV,2,1,08,03,54,112,17,05,27,046,28,08,27,177,33,13,46,299,27,7*7D
$GAGSV,2,2,08,15,73,084,31,21,16,279,23,27,05,230,22,34,22,106,27,7*78
$GBGSV,3,1,11,06,28,067,24,09,28,087,22,11,65,298,20,12,56,143,18,1*7E
$GBGSV,3,2,11,13,04,080,16,14,08,216,17,16,26,059,26,02,05,104,,1*79
$GBGSV,3,3,11,05,21,125,,21,76,137,,22,34,050,,1*43
$GNGSA,A,3,01,03,08,10,14,17,21,22,27,32,,,0.8,0.5,0.6,1*35
$GNGSA,A,3,67,68,69,75,83,,,,,,,,0.8,0.5,0.6,2*30
$GNGSA,A,3,03,05,08,13,15,27,34,,,,,,0.8,0.5,0.6,3*32
$GNGSA,A,3,06,09,11,12,16,,,,,,,,0.8,0.5,0.6,4*34
$GNVTG,103.0,T,101.7,M,50.9,N,94.4,K,A*3D
$GNRMC,061042.00,A,4812.729244,N,01445.821170,E,50.9,103.0,181022,1.3,E,A,V*6C
$GNGGA,061042.00,4812.729244,N,01445.821170,E,1,12,0.5,242.3,M,44.5,M,,*7F
$GPGSV,3,1,11,01,53,298,32,03,31,239,25,08,47,185,36,10,19,057,24,1*62
$GPGSV,3,2,11,14,17,296,25,17,09,319,28,21,80,323,28,22,45,115,25,1*62
$GPGSV,3,3,11,27,18,161,30,32,43,073,34,24,00,000,,1*5E
$GLGSV,3,1,09,82,02,127,17,76,00,000,19,75,09,307,22,69,56,188,37,1*76
$GLGSV,3,2,09,84,63,331,12,83,44,116,21,67,12,032,22,68,61,050,31,1*78
$GLGSV,3,3,09,85,05,312,,1*49
$GAGSV,2,1,08,03,54,112,18,05,27,046,25,08,27,177,33,13,46,299,27,7*7F
$GAGSV,2,2,08,15,73,084,32,21,16,279,23,27,05,230,19,34,22,106,29,7*7D
$GBGSV,3,1,11,06,28,067,23,09,28,087,20,11,65,298,23,12,56,143,18,1*78
$GBGSV,3,2,11,13,04,080,16,14,08,216,18,16,26,059,26,02,05,104,,1*76
$GBGSV,3,3,11,05,21,125,,21,76,137,,22,34,050,,1*43
$GNGSA,A,3,01,03,08,10,14,17,21,22,27,32,,,0.8,0.5,0.6,1*35
$GNGSA,A,3,67,68,69,75,83,,,,,,,,0.8,0.5,0.6,2*30
$GNGSA,A,3,03,05,08,13,15,27,34,,,,,,0.8,0.5,0.6,3*32
$GNGSA,A,3,06,09,11,16,,,,,,,,,0.8,0.5,0.6,4*37
$GNVTG,100.7,T,99.4,M,52.3,N,96.8,K,A*0C
$GNRMC,061043.00,A,4812.726321,N,01445.842689,E,52.3,100.7,181022,1.3,E,A,V*68
$GNGGA,061043.00,4812.726321,N,01445.842689,E,1,12,0.5,242.2,M,44.5,M,,*76
$GPGSV,3,1,11,01,53,298,31,03,31,239,29,08,47,185,36,10,19,057,31,1*69
$GPGSV,3,2,11,14,17,296,19,17,09,319,26,21,80,323,29,22,45,115,25,1*62
$GPGSV,3,3,11,27,18,161,21,32,43,073,30,24,00,000,,1*5A
$GLGSV,3,1,09,82,02,127,15,76,00,000,19,75,09,307,17,69,56,188,34,1*71
$GLGSV,3,2,09,84,63,331,15,83,44,116,21,85,05,312,26,67,12,032,26,1*79
$GLGSV,3,3,09,68,61,050,29,1*46
$GAGSV,2,1,08,03,54,112,22,05,27,046,27,08,27,177,30,13,46,299,26,7*76
$GAGSV,2,2,08,15,73,084,31,21,16,279,21,27,05,230,19,34,22,106,26,7*73
$GBGSV,3,1,11,06,28,067,23,09,28,087,19,11,65,298,23,12,56,143,16,1*7C
$GBGSV,3,2,11,13,04,080,16,14,08,216,23,16,26,059,27,02,05,104,,1*7F
$GBGSV,3,3,11,05,21,125,,21,76,137,,22,34,050,,1*43
$GNGSA,A,3,01,03,08,10,14,17,21,22,27,32,,,0.8,0.5,0.6,1*35
$GNGSA,A,3,67,68,69,75,83,85,,,,,,,0.8,0.5,0.6,2*3D
$GNGSA,A,3,03,05,08,13,15,27,34,,,,,,0.8,0.5,0.6,3*32
$GNGSA,A,3,06,09,11,14,16,,,,,,,,0.8,0.5,0.6,4*32
$GNVTG,98.9,T,97.6,M,53.2,N,98.5,K,A*3D
$GNRMC,061044.00,A,4812.723616,N,01445.864419,E,53.2,98.9,181022,1.3,E,A,V*5A
$GNGGA,061044.00,4812.723616,N,01445.864419,E,1,12,0.5,241.9,M,44.5,M,,*72
$GPGSV,3,1,11,01,53,298,29,03,31,239,30,08,47,185,34,10,19,057,33,1*68
$GPGSV,3,2,11,14,17,296,18,17,09,319,18,21,80,323,29,22,45,115,23,1*68
$GPGSV,3,3,11,27,18,161,18,32,43,073,35,24,00,000,,1*55
$GLGSV,3,1,09,82,02,127,19,76,00,000,19,75,09,307,22,69,56,188,32,1*7D
$GLGSV,3,2,09,84,63,331,15,83,44,116,21,85,05,312,28,67,12,032,23,1*72
$GLGSV,3,3,09,68,61,050,27,1*48
$GAGSV,2,1,08,03,54,112,25,05,27,046,30,08,27,177,28,13,46,299,25,7*7D
$GAGSV,2,2,08,15,73,084,30,21,16,279,21,27,05,230,18,34,22,106,22,7*77
$GBGSV,3,1,11,06,28,067,23,09,28,087,19,11,65,298,23,12,56,143,27,1*7E
$GBGSV,3,2,11,13,04,080,16,14,08,216,19,16,26,059,26,02,05,104,,1*77
$GBGSV,3,3,11,05,21,125,,21,76,137,,22,34,050,,1*43
$GNGSA,A,3,01,03,08,10,14,17,21,22,27,32,,,0.8,0.5,0.6,1*35
$GNGSA,A,3,67,68,69,75,83,85,,,,,,,0.8,0.5,0.6,2*3D
$GNGSA,A,3,03,05,08,13,15,27,34,,,,,,0.8,0.5,0.6,3*32
$GNGSA,A,3,06,09,11,12,14,16,,,,,,,0.8,0.5,0.6,4*31
$GNVTG,97.4,T,96.1,M,54.4,N,100.7,K,A*0A
$GNRMC,061045.00,A,4812.721955,N,01445.886736,E,54.4,97.4,181022,1.3,E,A,V*50
$GNGGA,061045.00,4812.721955,N,01445.886736,E,1,12,0.5,239.9,M,44.5,M,,*74
$GPGSV,3,1,11,01,53,298,26,03,31,239,29,08,47,185,31,10,19,057,32,1*6B
$GPGSV,3,2,11,14,17,296,19,17,09,319,19,21,80,323,29,22,45,115,20,1*6B
$GPGSV,3,3,11,27,18,161,21,32,43,073,36,24,00,000,,1*5C
$GLGSV,3,1,09,82,02,127,20,76,00,000,19,75,09,307,22,69,56,188,31,1*74
$GLGSV,3,2,09,84,63,331,15,83,44,116,20,85,05,312,26,67,12,032,21,1*7F
$GLGSV,3,3,09,68,61,050,25,1*4A
$GAGSV,2,1,08,03,54,112,25,05,27,046,31,08,27,177,25,13,46,299,27,7*73
$GAGSV,2,2,08,15,73,084,29,21,16,279,21,27,05,230,18,34,22,106,20,7*7D
$GBGSV,3,1,11,06,28,067,23,09,28,087,19,11,65,298,22,12,56,143,28,1*70
$GBGSV,3,2,11,13,04,080,16,14,08,216,22,16,26,059,26,02,05,104,,1*7F
$GBGSV,3,3,11,05,21,125,,21,76,137,,22,34,050,,1*43
$GNGSA,A,3,01,03,08,10,14,17,21,22,27,32,,,0.8,0.5,0.6,1*35
$GNGSA,A,3,67,68,69,75,83,85,,,,,,,0.8,0.5,0.6,2*3D
$GNGSA,A,3,03,05,08,13,15,27,34,,,,,,0.8,0.5,0.6,3*32
$GNGSA,A,3,06,09,11,12,14,16,,,,,,,0.8,0.5,0.6,4*31
$GNVTG,96.0,T,94.7,M,55.1,N,102.0,K,A*0A
$GNRMC,061046.00,A,4812.720152,N,01445.909453,E,55.1,96.0,181022,1.3,E,A,V*5A
$GNGGA,061046.00,4812.720152,N,01445.909453,E,1,12,0.5,239.7,M,44.5,M,,*71
$GPGSV,3,1,11,01,53,298,24,03,31,239,28,08,47,185,28,10,19,057,30,1*62
$GPGSV,3,2,11,14,17,296,16,17,09,319,24,21,80,323,27,22,45,115,18,1*6F
$GPGSV,3,3,11,27,18,161,19,32,43,073,35,24,00,000,,1*54
$GLGSV,3,1,09,82,02,127,20,76,00,000,19,75,09,307,16,69,56,188,32,1*70
$GLGSV,3,2,09,84,63,331,15,83,44,116,20,85,05,312,25,67,12,032,18,1*76
$GLGSV,3,3,09,68,61,050,26,1*49
$GAGSV,2,1,08,03,54,112,27,05,27,046,31,08,27,177,21,13,46,299,26,7*74
$GAGSV,2,2,08,15,73,084,28,21,16,279,21,27,05,230,16,34,22,106,18,7*79
$GBGSV,3,1,11,06,28,067,23,09,28,087,19,11,65,298,21,12,56,143,27,1*7C
$GBGSV,3,2,11,13,04,080,16,14,08,216,18,16,26,059,24,02,05,104,,1*74
$GBGSV,3,3,11,05,21,125,,21,76,137,,22,34,050,,1*43
$GNGSA,A,3,01,03,08,10,14,17,21,22,27,32,,,0.8,0.5,0.6,1*35
$GNGSA,A,3,67,68,69,75,83,85,,,,,,,0.8,0.5,0.6,2*3D
$GNGSA,A,3,03,05,08,13,15,27,34,,,,,,0.8,0.5,0.6,3*32
$GNGSA,A,3,06,09,11,12,14,16,,,,,,,0.8,0.5,0.6,4*31
$GNVTG,95.0,T,93.7,M,55.5,N,102.7,K,A*0D
$GNRMC,061047.00,A,4812.718439,N,01445.932513,E,55.5,95.0,181022,1.3,E,A,V*52
$GNGGA,061047.00,4812.718439,N,01445.932513,E,1,12,0.5,239.1,M,44.5,M,,*78
$GPGSV,3,1,11,01,53,298,24,03,31,239,28,08,47,185,24,10,19,057,29,1*66
$GPGSV,3,2,11,14,17,296,19,17,09,319,27,21,80,323,27,22,45,115,19,1*62
$GPGSV,3,3,11,27,18,161,20,32,43,073,35,24,00,000,,1*5E
$GLGSV,3,1,09,82,02,127,20,76,00,000,19,75,09,307,20,69,56,188,33,1*74
$GLGSV,3,2,09,84,63,331,15,83,44,116,19,85,05,312,23,67,12,032,18,1*7A
$GLGSV,3,3,09,68,61,050,25,1*4A
$GAGSV,2,1,08,03,54,112,29,05,27,046,30,08,27,177,19,13,46,299,27,7*71
$GAGSV,2,2,08,15,73,084,27,21,16,279,21,27,05,230,16,34,22,106,19,7*77
$GBGSV,3,1,11,06,28,067,23,09,28,087,19,11,65,298,21,12,56,143,27,1*7C
$GBGSV,3,2,11,13,04,080,16,14,08,216,18,16,26,059,23,02,05,104,,1*73
$GBGSV,3,3,11,05,21,125,,21,76,137,,22,34,050,,1*43
$GNGSA,A,3,01,03,08,10,14,17,21,22,27,32,,,0.8,0.5,0.6,1*35
$GNGSA,A,3,67,68,69,75,83,85,,,,,,,0.8,0.5,0.6,2*3D
$GNGSA,A,3,03,05,08,13,15,27,34,,,,,,0.8,0.5,0.6,3*32
$GNGSA,A,3,06,09,11,12,14,16,,,,,,,0.8,0.5,0.6,4*31
$GNVTG,94.2,T,92.9,M,55.2,N,102.2,K,A*03
$GNRMC,061048.00,A,4812.717125,N,01445.955281,E,55.2,94.2,181022,1.3,E,A,V*53
$GNGGA,061048.00,4812.717125,N,01445.955281,E,1,12,0.5,239.4,M,44.5,M,,*78
$GPGSV,3,1,11,01,53,298,16,03,31,239,27,08,47,185,28,10,19,057,27,1*6A
$GPGSV,3,2,11,14,17,296,22,17,09,319,29,21,80,323,28,22,45,115,19,1*6B
$GPGSV,3,3,11,27,18,161,20,32,43,073,36,24,00,000,,1*5D
$GLGSV,3,1,09,82,02,127,15,76,00,000,19,75,09,307,20,69,56,188,34,1*75
$GLGSV,3,2,09,84,63,331,15,83,44,116,20,85,05,312,23,67,12,032,17,1*7F
$GLGSV,3,3,09,68,61,050,21,1*4E
$GAGSV,2,1,08,03,54,112,26,05,27,046,30,08,27,177,20,13,46,299,28,7*7B
$GAGSV,2,2,08,15,73,084,29,21,16,279,21,27,05,230,19,34,22,106,19,7*76
$GBGSV,3,1,11,06,28,067,21,09,28,087,19,11,65,298,19,12,56,143,28,1*7A
$GBGSV,3,2,11,13,04,080,16,14,08,216,18,16,26,059,24,02,05,104,,1*74
$GBGSV,3,3,11,05,21,125,,21,76,137,,22,34,050,,1*43
$GNGSA,A,3,01,03,08,10,14,17,21,22,27,32,,,0.8,0.5,0.6,1*35
$GNGSA,A,3,67,68,69,75,83,85,,,,,,,0.8,0.5,0.6,2*3D
$GNGSA,A,3,03,05,08,13,15,27,34,,,,,,0.8,0.5,0.6,3*32
$GNGSA,A,3,06,11,12,14,16,,,,,,,,0.8,0.5,0.6,4*38
$GNVTG,94.4,T,93.1,M,55.5,N,102.7,K,A*0E
$GNRMC,061049.00,A,4812.716018,N,01445.978305,E,55.5,94.4,181022,1.3,E,A,V*5F
$GNGGA,061049.00,4812.716018,N,01445.978305,E,1,12,0.5,239.5,M,44.5,M,,*74
$GPGSV,3,1,11,01,53,298,16,03,31,239,27,08,47,185,32,10,19,057,30,1*67
$GPGSV,3,2,11,14,17,296,20,17,09,319,27,21,80,323,27,22,45,115,20,1*62
$GPGSV,3,3,11,27,18,161,19,32,43,073,34,24,00,000,,1*55
$GLGSV,3,1,09,82,02,127,17,76,00,000,19,75,09,307,22,69,56,188,32,1*73
$GLGSV,3,2,09,84,63,331,15,83,44,116,19,85,05,312,23,67,12,032,17,1*75
$GLGSV,3,3,09,68,61,050,21,1*4E
$GAGSV,2,1,08,03,54,112,20,05,27,046,31,08,27,177,26,13,46,299,27,7*75
$GAGSV,2,2,08,15,73,084,32,21,16,279,21,27,05,230,19,34,22,106,16,7*73
$GBGSV,3,1,11,06,28,067,23,09,28,087,19,11,65,298,19,12,56,143,25,1*75
$GBGSV,3,2,11,13,04,080,16,14,08,216,22,16,26,059,26,02,05,104,,1*7F
$GBGSV,3,3,11,05,21,125,,21,76,137,,22,34,050,,1*43
$GNGSA,A,3,01,03,08,10,14,17,21,22,27,32,,,0.8,0.5,0.6,1*35
$GNGSA,A,3,67,68,69,75,83,85,,,,,,,0.8,0.5,0.6,2*3D
$GNGSA,A,3,03,05,08,13,15,27,34,,,,,,0.8,0.5,0.6,3*32
$GNGSA,A,3,06,11,12,14,16,,,,,,,,0.8,0.5,0.6,4*38
$GNVTG,94.8,T,93.5,M,55.4,N,102.6,K,A*06
$GNRMC,061050.00,A,4812.714642,N,01446.001189,E,55.4,94.8,181022,1.3,E,A,V*53
$GNGGA,061050.00,4812.714642,N,01446.001189,E,1,12,0.5,239.5,M,44.5,M,,*75
$GPGSV,3,1,11,01,53,298,16,03,31,239,28,08,47,185,33,10,19,057,30,1*69
$GPGSV,3,2,11,14,17,296,22,17,09,319,26,21,80,323,27,22,45,115,24,1*65
$GPGSV,3,3,11,27,18,161,20,32,43,073,33,24,00,000,,1*58
$GLGSV,3,1,09,82,02,127,17,76,00,000,19,75,09,307,26,69,56,188,32,1*77
$GLGSV,3,2,09,84,63,331,15,83,44,116,18,85,05,312,14,67,12,032,17,1*70
$GLGSV,3,3,09,68,61,050,21,1*4E
$GAGSV,2,1,08,03,54,112,20,05,27,046,31,08,27,177,26,13,46,299,27,7*75
$GAGSV,2,2,08,15,73,084,33,21,16,279,21,27,05,230,24,34,22,106,19,7*73
$GBGSV,3,1,11,06,28,067,23,09,28,087,19,11,65,298,19,12,56,143,24,1*74
$GBGSV,3,2,11,13,04,080,16,14,08,216,22,16,26,059,26,02,05,104,,1*7F
$GBGSV,3,3,11,05,21,125,,21,76,137,,22,34,050,,1*43
$GNGSA,A,3,01,03,08,10,14,17,21,22,27,32,,,0.8,0.5,0.6,1*35
$GNGSA,A,3,67,68,69,75,83,85,,,,,,,0.8,0.5,0.6,2*3D
$GNGSA,A,3,03,05,08,13,15,27,34,,,,,,0.8,0.5,0.6,3*32
$GNGSA,A,3,06,11,12,14,16,,,,,,,,0.8,0.5,0.6,4*38
$GNVTG,94.7,T,93.4,M,55.3,N,102.5,K,A*0C
$GNRMC,061051.00,A,4812.713112,N,01446.024370,E,55.3,94.7,181022,1.3,E,A,V*5C
$GNGGA,061051.00,4812.713112,N,01446.024370,E,1,12,0.5,239.9,M,44.5,M,,*7E
$GPGSV,3,1,11,01,53,298,16,03,31,239,28,08,47,185,32,10,19,057,30,1*68
$GPGSV,3,2,11,14,17,296,21,17,09,319,27,21,80,323,27,22,45,115,24,1*67
$GPGSV,3,3,11,27,18,161,20,32,43,073,34,24,00,000,,1*5F
$GLGSV,3,1,09,82,02,127,17,76,00,000,19,75,09,307,26,69,56,188,32,1*77
$GLGSV,3,2,09,84,63,331,15,83,44,116,18,85,05,312,14,67,12,032,14,1*73
$GLGSV,3,3,09,68,61,050,21,1*4E
$GAGSV,2,1,08,03,54,112,20,05,27,046,31,08,27,177,26,13,46,299,28,7*7A
$GAGSV,2,2,08,15,73,084,32,21,16,279,21,27,05,230,24,34,22,106,17,7*7C
$GBGSV,3,1,11,06,28,067,23,09,28,087,19,11,65,298,19,12,56,143,24,1*74
$GBGSV,3,2,11,13,04,080,16,14,08,216,22,16,26,059,26,02,05,104,,1*7F
$GBGSV,3,3,11,05,21,125,,21,76,137,,22,34,050,,1*43
$GNGSA,A,3,01,03,08,10,14,17,21,22,27,32,,,0.8,0.5,0.6,1*35
$GNGSA,A,3,67,68,69,75,83,85,,,,,,,0.8,0.5,0.6,2*3D
$GNGSA,A,3,03,05,08,13,15,27,34,,,,,,0.8,0.5,0.6,3*32
$GNGSA,A,3,06,11,12,14,16,,,,,,,,0.8,0.5,0.6,4*38
$GNVTG,94.9,T,93.6,M,55.4,N,102.6,K,A*04
$GNRMC,061052.00,A,4812.711634,N,01446.047311,E,55.4,94.9,181022,1.3,E,A,V*55
$GNGGA,061052.00,4812.711634,N,01446.047311,E,1,12,0.5,239.9,M,44.5,M,,*7E
$GPGSV,3,1,11,01,53,298,15,03,31,239,28,08,47,185,32,10,19,057,29,1*63
$GPGSV,3,2,11,14,17,296,20,17,09,319,27,21,80,323,26,22,45,115,23,1*60
$GPGSV,3,3,11,27,18,161,20,32,43,073,33,24,00,000,,1*58
$GLGSV,2,1,08,82,02,127,13,75,09,307,26,69,56,188,32,84,63,331,15,1*76
$GLGSV,2,2,08,83,44,116,18,85,05,312,14,67,12,032,17,68,61,050,21,1*73
$GAGSV,2,1,08,03,54,112,19,05,27,046,32,08,27,177,26,13,46,299,27,7*7C
$GAGSV,2,2,08,15,73,084,32,21,16,279,21,27,05,230,17,34,22,106,18,7*73
$GBGSV,3,1,11,06,28,067,23,09,28,087,19,11,65,298,19,12,56,143,24,1*74
$GBGSV,3,2,11,13,04,080,12,14,08,216,22,16,26,059,26,02,05,104,,1*7B
$GBGSV,3,3,11,05,21,125,,21,76,137,,22,34,050,,1*43
$GNGSA,A,3,01,03,08,10,14,17,21,22,27,32,,,0.7,0.5,0.6,1*3A
$GNGSA,A,3,67,68,69,75,83,85,,,,,,,0.7,0.5,0.6,2*32
$GNGSA,A,3,03,05,08,13,15,27,34,,,,,,0.7,0.5,0.6,3*3D
$GNGSA,A,3,06,11,12,13,14,16,,,,,,,0.7,0.5,0.6,4*35
$GNVTG,94.8,T,93.5,M,55.4,N,102.6,K,A*06
$GNRMC,061053.00,A,4812.710567,N,01446.069963,E,55.4,94.8,181022,1.3,E,A,V*52
$GNGGA,061053.00,4812.710567,N,01446.069963,E,1,12,0.5,239.3,M,44.5,M,,*72
$GPGSV,3,1,11,01,53,298,16,03,31,239,28,08,47,185,32,10,19,057,27,1*6E
$GPGSV,3,2,11,14,17,296,20,17,09,319,27,21,80,323,26,22,45,115,22,1*61
$GPGSV,3,3,11,27,18,161,18,32,43,073,33,24,00,000,,1*53
$GLGSV,3,1,09,82,02,127,13,75,09,307,26,69,56,188,32,84,63,331,15,1*76
$GLGSV,3,2,09,83,44,116,19,85,05,312,15,67,12,032,17,68,61,050,11,1*70
$GLGSV,3,3,09,76,00,000,,1*40
$GAGSV,2,1,08,03,54,112,20,05,27,046,30,08,27,177,24,13,46,299,26,7*77
$GAGSV,2,2,08,15,73,084,32,21,16,279,21,27,05,230,19,34,22,106,19,7*7C
$GBGSV,3,1,11,06,28,067,23,09,28,087,19,11,65,298,19,12,56,143,25,1*75
$GBGSV,3,2,11,13,04,080,12,14,08,216,18,16,26,059,26,02,05,104,,1*72
$GBGSV,3,3,11,05,21,125,,21,76,137,,22,34,050,,1*43
$GNGSA,A,3,01,03,08,10,14,17,21,22,27,32,,,0.8,0.5,0.6,1*35
$GNGSA,A,3,67,68,69,75,83,85,,,,,,,0.8,0.5,0.6,2*3D
$GNGSA,A,3,03,05,08,13,15,27,34,,,,,,0.8,0.5,0.6,3*32
$GNGSA,A,3,06,12,13,14,16,,,,,,,,0.8,0.5,0.6,4*3A
$GNVTG,94.8,T,93.5,M,55.3,N,102.5,K,A*02
$GNRMC,061054.00,A,4812.709079,N,01446.092874,E,55.3,94.8,181022,1.3,E,A,V*53
$GNGGA,061054.00,4812.709079,N,01446.092874,E,1,12,0.5,239.0,M,44.5,M,,*77
$GNGSA,A,3,01,03,08,10,14,17,21,22,27,32,,,0.8,0.5,0.6,1*35
$GNGSA,A,3,67,68,69,75,83,85,,,,,,,0.8,0.5,0.6,2*3D
$GNGSA,A,3,03,05,08,13,15,27,34,,,,,,0.8,0.5,0.6,3*32
$GNGSA,A,3,06,12,13,14,16,,,,,,,,0.8,0.5,0.6,4*3A
$GNVTG,95.0,T,93.7,M,55.3,N,102.4,K,A*08
$GNRMC,061055.00,A,4812.707814,N,01446.116069,E,55.3,95.0,181022,1.3,E,A,V*5F
$GNGGA,061055.00,4812.707814,N,01446.116069,E,1,12,0.5,239.5,M,44.5,M,,*77
$GPGSV,3,1,11,01,53,298,16,03,31,239,26,08,47,185,30,10,19,057,30,1*64
$GPGSV,3,2,11,14,17,296,19,17,09,319,24,21,80,323,26,22,45,115,24,1*6E
$GPGSV,3,3,11,27,18,161,18,32,43,073,31,24,00,000,,1*51
$GLGSV,3,1,09,82,02,127,23,75,09,307,20,69,56,188,32,84,63,331,15,1*73
$GLGSV,3,2,09,83,44,116,19,85,05,312,15,67,12,032,17,68,61,050,11,1*70
$GLGSV,3,3,09,76,00,000,,1*40
$GAGSV,2,1,08,03,54,112,19,05,27,046,30,08,27,177,25,13,46,299,27,7*7D
$GAGSV,2,2,08,15,73,084,31,21,16,279,11,27,05,230,20,34,22,106,16,7*79
$GBGSV,3,1,11,06,28,067,22,09,28,087,19,11,65,298,19,12,56,143,22,1*73
$GBGSV,3,2,11,13,04,080,12,14,08,216,22,16,26,059,26,02,05,104,,1*7B
$GBGSV,3,3,11,05,21,125,,21,76,137,,22,34,050,,1*43
$GNGSA,A,3,01,03,08,10,14,17,21,22,27,32,,,0.8,0.5,0.6,1*35
$GNGSA,A,3,67,68,69,75,83,85,,,,,,,0.8,0.5,0.6,2*3D
$GNGSA,A,3,03,05,08,13,15,27,34,,,,,,0.8,0.5,0.6,3*32
$GNGSA,A,3,06,12,13,14,16,,,,,,,,0.8,0.5,0.6,4*3A
$GNVTG,95.8,T,94.5,M,55.3,N,102.4,K,A*05
$GNRMC,061056.00,A,4812.706371,N,01446.138874,E,55.3,95.8,181022,1.3,E,A,V*55
$GNGGA,061056.00,4812.706371,N,01446.138874,E,1,12,0.5,240.2,M,44.5,M,,*7C
$GPGSV,3,1,11,01,53,298,16,03,31,239,27,08,47,185,31,10,19,057,31,1*65
$GPGSV,3,2,11,14,17,296,15,17,09,319,24,21,80,323,27,22,45,115,26,1*61
$GPGSV,3,3,11,27,18,161,21,32,43,073,31,24,00,000,,1*5B
$GLGSV,3,1,09,82,02,127,25,75,09,307,20,69,56,188,33,84,63,331,15,1*74
$GLGSV,3,2,09,83,44,116,20,85,05,312,15,67,12,032,17,68,61,050,11,1*7A
$GLGSV,3,3,09,76,00,000,,1*40
$GAGSV,2,1,08,03,54,112,20,05,27,046,32,08,27,177,28,13,46,299,29,7*76
$GAGSV,2,2,08,15,73,084,33,21,16,279,11,27,05,230,16,34,22,106,21,7*7A
$GBGSV,3,1,11,06,28,067,22,09,28,087,19,11,65,298,19,12,56,143,23,1*72
$GBGSV,3,2,11,13,04,080,12,14,08,216,19,16,26,059,28,02,05,104,,1*7D
$GBGSV,3,3,11,05,21,125,,21,76,137,,22,34,050,,1*43
$GNGSA,A,3,01,03,08,10,14,17,21,22,27,32,,,0.8,0.5,0.6,1*35
$GNGSA,A,3,67,68,69,75,83,85,,,,,,,0.8,0.5,0.6,2*3D
$GNGSA,A,3,03,05,08,13,15,27,34,,,,,,0.8,0.5,0.6,3*32
$GNGSA,A,3,06,12,13,14,16,,,,,,,,0.8,0.5,0.6,4*3A
$GNVTG,96.8,T,95.5,M,55.2,N,102.2,K,A*00
$GNRMC,061057.00,A,4812.704870,N,01446.161379,E,55.2,96.8,181022,1.3,E,A,V*54
$GNGGA,061057.00,4812.704870,N,01446.161379,E,1,12,0.5,240.2,M,44.5,M,,*7F
$GPGSV,3,1,11,01,53,298,16,03,31,239,27,08,47,185,31,10,19,057,30,1*64
$GPGSV,3,2,11,14,17,296,16,17,09,319,24,21,80,323,28,22,45,115,25,1*6E
$GPGSV,3,3,11,27,18,161,21,32,43,073,30,24,00,000,,1*5A
$GLGSV,3,1,09,82,02,127,24,75,09,307,20,69,56,188,31,84,63,331,15,1*77
$GLGSV,3,2,09,83,44,116,20,85,05,312,15,67,12,032,17,68,61,050,11,1*7A
$GLGSV,3,3,09,76,00,000,,1*40
$GAGSV,2,1,08,03,54,112,21,05,27,046,31,08,27,177,30,13,46,299,29,7*7D
$GAGSV,2,2,08,15,73,084,32,21,16,279,11,27,05,230,21,34,22,106,23,7*7D
$GBGSV,3,1,11,02,05,104,21,06,28,067,21,09,28,087,19,11,65,298,11,1*7F
$GBGSV,3,2,11,12,56,143,22,13,04,080,12,14,08,216,19,16,26,059,29,1*78
$GBGSV,3,3,11,05,21,125,,21,76,137,,22,34,050,,1*43
$GNGSA,A,3,01,03,08,10,14,17,21,22,27,32,,,0.7,0.5,0.5,1*39
$GNGSA,A,3,67,68,69,75,83,85,,,,,,,0.7,0.5,0.5,2*31
$GNGSA,A,3,03,05,08,13,15,27,34,,,,,,0.7,0.5,0.5,3*3E
$GNGSA,A,3,02,06,11,12,13,14,16,,,,,,0.7,0.5,0.5,4*34
$GNVTG,98.1,T,96.8,M,55.0,N,102.0,K,A*09
$GNRMC,061058.00,A,4812.703082,N,01446.184081,E,55.0,98.1,181022,1.3,E,A,V*53
$GNGGA,061058.00,4812.703082,N,01446.184081,E,1,12,0.5,240.2,M,44.5,M,,*7D
$GPGSV,3,1,11,01,53,298,16,03,31,239,26,08,47,185,30,10,19,057,23,1*66
$GPGSV,3,2,11,14,17,296,16,17,09,319,24,21,80,323,24,22,45,115,21,1*66
$GPGSV,3,3,11,27,18,161,21,32,43,073,25,24,00,000,,1*5E
$GLGSV,3,1,09,82,02,127,20,75,09,307,13,69,56,188,29,84,63,331,15,1*7A
$GLGSV,3,2,09,83,44,116,19,85,05,312,15,67,12,032,17,68,61,050,15,1*74
$GLGSV,3,3,09,76,00,000,,1*40
$GAGSV,2,1,08,03,54,112,20,05,27,046,26,08,27,177,27,13,46,299,27,7*72
$GAGSV,2,2,08,15,73,084,31,21,16,279,11,27,05,230,19,34,22,106,24,7*72
$GBGSV,3,1,11,02,05,104,21,06,28,067,20,09,28,087,16,11,65,298,17,1*77
$GBGSV,3,2,11,12,56,143,19,13,04,080,12,14,08,216,17,16,26,059,26,1*71
$GBGSV,3,3,11,05,21,125,,21,76,137,,22,34,050,,1*43
$GNGSA,A,3,01,03,08,10,14,17,21,22,27,32,,,0.8,0.5,0.6,1*35
$GNGSA,A,3,68,69,75,83,85,,,,,,,,0.8,0.5,0.6,2*3C
$GNGSA,A,3,03,05,08,13,15,27,34,,,,,,0.8,0.5,0.6,3*32
$GNGSA,A,3,02,06,09,11,12,14,16,,,,,,0.8,0.5,0.6,4*33
$GNVTG,99.4,T,98.1,M,55.0,N,101.8,K,A*01
$GNRMC,061059.00,A,4812.700881,N,01446.206432,E,55.0,99.4,181022,1.3,E,A,V*5B
$GNGGA,061059.00,4812.700881,N,01446.206432,E,1,12,0.5,240.6,M,44.5,M,,*75
$GPGSV,3,1,11,01,53,298,22,03,31,239,27,08,47,185,33,10,19,057,17,1*64
$GPGSV,3,2,11,14,17,296,14,17,09,319,24,21,80,323,25,22,45,115,22,1*66
$GPGSV,3,3,11,27,18,161,20,32,43,073,29,24,00,000,,1*53
$GLGSV,3,1,09,82,02,127,20,75,09,307,17,69,56,188,30,84,63,331,10,1*73
$GLGSV,3,2,09,83,44,116,22,85,05,312,15,67,12,032,17,68,61,050,24,1*7E
$GLGSV,3,3,09,76,00,000,,1*40
$GAGSV,2,1,08,03,54,112,24,05,27,046,23,08,27,177,29,13,46,299,27,7*7D
$GAGSV,2,2,08,15,73,084,32,21,16,279,12,27,05,230,19,34,22,106,24,7*72
$GBGSV,3,1,11,02,05,104,21,06,28,067,20,09,28,087,20,11,65,298,20,1*76
$GBGSV,3,2,11,12,56,143,20,13,04,080,12,14,08,216,19,16,26,059,26,1*75
$GBGSV,3,3,11,05,21,125,,21,76,137,,22,34,050,,1*43
$GNGSA,A,3,01,03,08,10,14,17,21,22,27,32,,,0.8,0.5,0.6,1*35
$GNGSA,A,3,68,69,75,83,84,,,,,,,,0.8,0.5,0.6,2*3D
$GNGSA,A,3,03,05,08,13,15,27,34,,,,,,0.8,0.5,0.6,3*32
$GNGSA,A,3,02,06,09,11,12,14,16,,,,,,0.8,0.5,0.6,4*33
$GNVTG,100.4,T,99.1,M,55.1,N,102.1,K,A*3A
$GNRMC,061100.00,A,4812.698190,N,01446.228865,E,55.1,100.4,181022,1.3,E,A,V*6D
$GNGGA,061100.00,4812.698190,N,01446.228865,E,1,12,0.5,240.3,M,44.5,M,,*76
$GPGSV,3,1,11,01,53,298,24,03,31,239,27,08,47,185,35,10,19,057,17,1*64
$GPGSV,3,2,11,14,17,296,19,17,09,319,24,21,80,323,25,22,45,115,22,1*6B
$GPGSV,3,3,11,27,18,161,26,32,43,073,31,24,00,000,,1*5C
$GLGSV,3,1,09,82,02,127,15,75,09,307,17,69,56,188,32,84,63,331,10,1*77
$GLGSV,3,2,09,83,44,116,22,85,05,312,15,67,12,032,17,68,61,050,25,1*7F
$GLGSV,3,3,09,76,00,000,,1*40
$GAGSV,2,1,08,03,54,112,25,05,27,046,19,08,27,177,30,13,46,299,27,7*7D
$GAGSV,2,2,08,15,73,084,32,21,16,279,21,27,05,230,19,34,22,106,26,7*70
$GBGSV,3,1,11,02,05,104,21,06,28,067,21,09,28,087,21,11,65,298,20,1*76
$GBGSV,3,2,11,12,56,143,19,13,04,080,12,14,08,216,19,16,26,059,26,1*7F
$GBGSV,3,3,11,05,21,125,,21,76,137,,22,34,050,,1*43
$GNGSA,A,3,01,03,08,10,14,17,21,22,27,32,,,0.8,0.5,0.6,1*35
$GNGSA,A,3,68,69,75,83,84,,,,,,,,0.8,0.5,0.6,2*3D
$GNGSA,A,3,03,05,08,13,15,27,34,,,,,,0.8,0.5,0.6,3*32
$GNGSA,A,3,02,06,09,11,12,14,16,,,,,,0.8,0.5,0.6,4*33
$GNVTG,101.0,T,99.7,M,55.2,N,102.3,K,A*38
$GNRMC,061101.00,A,4812.695250,N,01446.251684,E,55.2,101.0,181022,1.3,E,A,V*67
$GNGGA,061101.00,4812.695250,N,01446.251684,E,1,12,0.5,240.5,M,44.5,M,,*7C
$GPGSV,3,1,11,01,53,298,26,03,31,239,27,08,47,185,36,10,19,057,15,1*67
$GPGSV,3,2,11,14,17,296,21,17,09,319,13,21,80,323,26,22,45,115,23,1*66
$GPGSV,3,3,11,27,18,161,28,32,43,073,34,24,00,000,,1*57
$GLGSV,3,1,09,82,02,127,15,75,09,307,15,69,56,188,33,84,63,331,10,1*74
$GLGSV,3,2,09,83,44,116,23,85,05,312,15,67,12,032,17,68,61,050,27,1*7C
$GLGSV,3,3,09,76,00,000,,1*40
$GAGSV,2,1,08,03,54,112,26,05,27,046,20,08,27,177,31,13,46,299,28,7*7A
$GAGSV,2,2,08,15,73,084,33,21,16,279,22,27,05,230,16,34,22,106,27,7*7C
$GBGSV,3,1,11,02,05,104,21,06,28,067,22,09,28,087,23,11,65,298,21,1*76
$GBGSV,3,2,11,12,56,143,20,13,04,080,12,14,08,216,19,16,26,059,24,1*77
$GBGSV,3,3,11,05,21,125,,21,76,137,,22,34,050,,1*43
$GNGSA,A,3,01,03,08,10,14,21,22,27,32,,,,0.8,0.5,0.6,1*33
$GNGSA,A,3,68,69,75,83,84,,,,,,,,0.8,0.5,0.6,2*3D
$GNGSA,A,3,03,05,08,13,15,27,34,,,,,,0.8,0.5,0.6,3*32
$GNGSA,A,3,02,06,09,11,12,14,16,,,,,,0.8,0.5,0.6,4*33
$GNVTG,101.7,T,100.4,M,55.3,N,102.5,K,A*0A
$GNRMC,061102.00,A,4812.692153,N,01446.274125,E,55.3,101.7,181022,1.3,E,A,V*6E
$GNGGA,061102.00,4812.692153,N,01446.274125,E,1,12,0.5,240.6,M,44.5,M,,*70
$GPGSV,3,1,11,01,53,298,28,03,31,239,28,08,47,185,37,10,19,057,23,1*62
$GPGSV,3,2,11,14,17,296,25,17,09,319,13,21,80,323,27,22,45,115,25,1*65
$GPGSV,3,3,11,27,18,161,30,32,43,073,36,24,00,000,,1*5C
$GLGSV,3,1,09,82,02,127,15,75,09,307,15,69,56,188,36,84,63,331,10,1*71
$GLGSV,3,2,09,83,44,116,26,85,05,312,15,67,12,032,17,68,61,050,29,1*77
$GLGSV,3,3,09,76,00,000,,1*40
$GAGSV,2,1,08,03,54,112,28,05,27,046,25,08,27,177,33,13,46,299,28,7*73
$GAGSV,2,2,08,15,73,084,34,21,16,279,25,27,05,230,18,34,22,106,28,7*7D
$GBGSV,3,1,11,02,05,104,21,06,28,067,23,09,28,087,25,11,65,298,23,1*73
$GBGSV,3,2,11,12,56,143,21,13,04,080,12,14,08,216,19,16,26,059,24,1*76
$GBGSV,3,3,11,05,21,125,,21,76,137,,22,34,050,,1*43
$GNGSA,A,3,01,03,08,10,14,21,22,27,32,,,,0.8,0.5,0.6,1*33
$GNGSA,A,3,68,69,75,83,84,,,,,,,,0.8,0.5,0.6,2*3D
$GNGSA,A,3,03,05,08,13,15,27,34,,,,,,0.8,0.5,0.6,3*32
$GNGSA,A,3,02,06,09,11,12,14,16,,,,,,0.8,0.5,0.6,4*33
$GNVTG,102.5,T,101.2,M,55.1,N,102.0,K,A*0B
$GNRMC,061103.00,A,4812.688966,N,01446.296560,E,55.1,102.5,181022,1.3,E,A,V*60
$GNGGA,061103.00,4812.688966,N,01446.296560,E,1,12,0.5,240.7,M,44.5,M,,*7C
$GPGSV,3,1,11,01,53,298,29,03,31,239,27,08,47,185,36,10,19,057,24,1*6A
$GPGSV,3,2,11,14,17,296,26,17,09,319,17,21,80,323,26,22,45,115,26,1*60
$GPGSV,3,3,11,27,18,161,31,32,43,073,36,24,00,000,,1*5D
$GLGSV,3,1,09,82,02,127,15,75,09,307,15,69,56,188,36,84,63,331,10,1*71
$GLGSV,3,2,09,83,44,116,25,85,05,312,15,67,12,032,17,68,61,050,28,1*75
$GLGSV,3,3,09,76,00,000,,1*40
$GAGSV,2,1,08,03,54,112,29,05,27,046,27,08,27,177,33,13,46,299,27,7*7F
$GAGSV,2,2,08,15,73,084,34,21,16,279,24,27,05,230,20,34,22,106,27,7*78
$GBGSV,3,1,11,02,05,104,21,06,28,067,22,09,28,087,22,11,65,298,23,1*75
$GBGSV,3,2,11,12,56,143,20,13,04,080,12,14,08,216,20,16,26,059,23,1*7A
$GBGSV,3,3,11,05,21,125,,21,76,137,,22,34,050,,1*43
$GNGSA,A,3,01,03,08,10,14,21,22,27,32,,,,0.8,0.5,0.6,1*33
$GNGSA,A,3,68,69,75,83,84,,,,,,,,0.8,0.5,0.6,2*3D
$GNGSA,A,3,03,05,08,13,15,27,34,,,,,,0.8,0.5,0.6,3*32
$GNGSA,A,3,06,09,11,12,14,16,,,,,,,0.8,0.5,0.6,4*31
$GNVTG,103.2,T,101.9,M,55.3,N,102.5,K,A*01
$GNRMC,061104.00,A,4812.685467,N,01446.318960,E,55.3,103.2,181022,1.3,E,A,V*69
$GNGGA,061104.00,4812.685467,N,01446.318960,E,1,12,0.5,241.3,M,44.5,M,,*74
$GPGSV,3,1,11,01,53,298,30,03,31,239,26,08,47,185,35,10,19,057,26,1*62
$GPGSV,3,2,11,14,17,296,27,17,09,319,21,21,80,323,26,22,45,115,26,1*64
$GPGSV,3,3,11,27,18,161,30,32,43,073,36,24,00,000,,1*5C
$GLGSV,3,1,09,82,02,127,15,75,09,307,15,69,56,188,36,84,63,331,10,1*71
$GLGSV,3,2,09,83,44,116,26,85,05,312,15,67,12,032,17,68,61,050,29,1*77
$GLGSV,3,3,09,76,00,000,,1*40
$GAGSV,2,1,08,03,54,112,28,05,27,046,29,08,27,177,33,13,46,299,27,7*70
$GAGSV,2,2,08,15,73,084,33,21,16,279,24,27,05,230,20,34,22,106,26,7*7E
$GBGSV,3,1,11,02,05,104,21,06,28,067,22,09,28,087,21,11,65,298,23,1*76
$GBGSV,3,2,11,12,56,143,19,13,04,080,12,14,08,216,20,16,26,059,23,1*70
$GBGSV,3,3,11,05,21,125,,21,76,137,,22,34,050,,1*43
$GNGSA,A,3,01,03,08,10,14,17,21,22,27,32,,,0.8,0.5,0.6,1*35
$GNGSA,A,3,68,69,75,83,84,,,,,,,,0.8,0.5,0.6,2*3D
$GNGSA,A,3,03,05,08,13,15,27,34,,,,,,0.8,0.5,0.6,3*32
$GNGSA,A,3,06,09,11,12,14,16,,,,,,,0.8,0.5,0.6,4*31
$GNVTG,104.1,T,102.8,M,55.4,N,102.6,K,A*03
$GNRMC,061105.00,A,4812.681986,N,01446.341302,E,55.4,104.1,181022,1.3,E,A,V*6F
$GNGGA,061105.00,4812.681986,N,01446.341302,E,1,12,0.5,241.4,M,44.5,M,,*76
$GPGSV,3,1,11,01,53,298,29,03,31,239,23,08,47,185,30,10,19,057,26,1*6A
$GPGSV,3,2,11,14,17,296,25,17,09,319,19,21,80,323,25,22,45,115,25,1*6D
$GPGSV,3,3,11,27,18,161,25,32,43,073,35,24,00,000,,1*5B
$GLGSV,3,1,09,82,02,127,15,75,09,307,15,69,56,188,35,84,63,331,10,1*72
$GLGSV,3,2,09,83,44,116,25,85,05,312,15,67,12,032,19,68,61,050,29,1*7A
$GLGSV,3,3,09,76,00,000,,1*40
$GAGSV,2,1,08,03,54,112,26,05,27,046,26,08,27,177,30,13,46,299,25,7*70
$GAGSV,2,2,08,15,73,084,31,21,16,279,22,27,05,230,20,34,22,106,19,7*76
$GBGSV,3,1,11,02,05,104,21,06,28,067,23,09,28,087,21,11,65,298,21,1*75
$GBGSV,3,2,11,12,56,143,19,13,04,080,12,14,08,216,20,16,26,059,22,1*71
$GBGSV,3,3,11,05,21,125,,21,76,137,,22,34,050,,1*43
$GNGSA,A,3,01,03,08,10,14,17,21,22,27,32,,,0.8,0.6,0.6,1*36
$GNGSA,A,3,67,68,69,83,,,,,,,,,0.8,0.6,0.6,2*31
$GNGSA,A,3,03,05,08,13,15,27,34,,,,,,0.8,0.6,0.6,3*31
$GNGSA,A,3,06,09,11,12,16,,,,,,,,0.8,0.6,0.6,4*37
$GNVTG,106.0,T,104.7,M,55.5,N,102.8,K,A*06
$GNRMC,061106.00,A,4812.678304,N,01446.362916,E,55.5,106.0,181022,1.3,E,A,V*66
$GNGGA,061106.00,4812.678304,N,01446.362916,E,1,12,0.6,241.6,M,44.5,M,,*7C
$GPGSV,3,1,11,01,53,298,31,03,31,239,26,08,47,185,20,10,19,057,29,1*68
$GPGSV,3,2,11,14,17,296,25,17,09,319,19,21,80,323,24,22,45,115,28,1*61
$GPGSV,3,3,11,27,18,161,22,32,43,073,33,24,00,000,,1*5A
$GLGSV,3,1,09,82,02,127,15,75,09,307,12,69,56,188,34,84,63,331,10,1*74
$GLGSV,3,2,09,83,44,116,26,85,05,312,15,67,12,032,21,68,61,050,33,1*79
$GLGSV,3,3,09,76,00,000,,1*40
$GAGSV,2,1,08,03,54,112,28,05,27,046,25,08,27,177,25,13,46,299,27,7*7B
$GAGSV,2,2,08,15,73,084,33,21,16,279,22,27,05,230,20,34,22,106,19,7*74
$GBGSV,3,1,11,02,05,104,21,06,28,067,25,09,28,087,23,11,65,298,23,1*73
$GBGSV,3,2,11,12,56,143,21,13,04,080,12,14,08,216,16,16,26,059,25,1*78
$GBGSV,3,3,11,05,21,125,,21,76,137,,22,34,050,,1*43
$GNGSA,A,3,01,03,08,10,14,17,21,22,27,32,,,0.8,0.5,0.6,1*35
$GNGSA,A,3,67,68,69,75,83,,,,,,,,0.8,0.5,0.6,2*30
$GNGSA,A,3,03,05,08,13,15,27,34,,,,,,0.8,0.5,0.6,3*32
$GNGSA,A,3,06,09,11,12,14,16,,,,,,,0.8,0.5,0.6,4*31
$GNVTG,107.5,T,106.2,M,56.3,N,104.2,K,A*0C
$GNRMC,061107.00,A,4812.673457,N,01446.385939,E,56.3,107.5,181022,1.3,E,A,V*68
$GNGGA,061107.00,4812.673457,N,01446.385939,E,1,12,0.5,241.8,M,44.5,M,,*7E
$GPGSV,3,1,11,01,53,298,32,03,31,239,27,08,47,185,20,10,19,057,30,1*62
$GPGSV,3,2,11,14,17,296,22,17,09,319,18,21,80,323,25,22,45,115,28,1*66
$GPGSV,3,3,11,27,18,161,22,32,43,073,31,24,00,000,,1*58
$GLGSV,3,1,09,82,02,127,10,75,09,307,17,69,56,188,31,84,63,331,10,1*71
$GLGSV,3,2,09,83,44,116,26,85,05,312,15,67,12,032,20,68,61,050,34,1*7F
$GLGSV,3,3,09,76,00,000,,1*40
$GAGSV,2,1,08,03,54,112,29,05,27,046,22,08,27,177,20,13,46,299,28,7*77
$GAGSV,2,2,08,15,73,084,33,21,16,279,19,27,05,230,20,34,22,106,16,7*73
$GBGSV,3,1,11,02,05,104,21,06,28,067,26,09,28,087,23,11,65,298,22,1*71
$GBGSV,3,2,11,12,56,143,22,13,04,080,12,14,08,216,16,16,26,059,25,1*7B
$GBGSV,3,3,11,05,21,125,,21,76,137,,22,34,050,,1*43
$GNGSA,A,3,01,03,08,10,14,17,21,22,27,32,,,0.8,0.5,0.6,1*35
$GNGSA,A,3,67,68,69,75,83,,,,,,,,0.8,0.5,0.6,2*30
$GNGSA,A,3,03,05,08,13,15,27,34,,,,,,0.8,0.5,0.6,3*32
$GNGSA,A,3,06,09,11,12,14,16,,,,,,,0.8,0.5,0.6,4*31
$GNVTG,108.3,T,107.0,M,56.9,N,105.4,K,A*0B
$GNRMC,061108.00,A,4812.668928,N,01446.407923,E,56.9,108.3,181022,1.3,E,A,V*6D
$GNGGA,061108.00,4812.668928,N,01446.407923,E,1,12,0.5,241.3,M,44.5,M,,*73
$GPGSV,3,1,11,01,53,298,30,03,31,239,26,08,47,185,21,10,19,057,30,1*60
$GPGSV,3,2,11,14,17,296,19,17,09,319,18,21,80,323,23,22,45,115,26,1*66
$GPGSV,3,3,11,27,18,161,22,32,43,073,29,24,00,000,,1*51
$GLGSV,3,1,09,82,02,127,10,75,09,307,16,69,56,188,28,84,63,331,10,1*78
$GLGSV,3,2,09,83,44,116,25,85,05,312,15,67,12,032,21,68,61,050,34,1*7D
$GLGSV,3,3,09,76,00,000,,1*40
$GAGSV,2,1,08,03,54,112,27,05,27,046,18,08,27,177,20,13,46,299,26,7*7E
$GAGSV,2,2,08,15,73,084,31,21,16,279,17,27,05,230,20,34,22,106,20,7*7A
$GBGSV,3,1,11,02,05,104,21,06,28,067,25,09,28,087,22,11,65,298,23,1*72
$GBGSV,3,2,11,12,56,143,21,13,04,080,12,14,08,216,19,16,26,059,24,1*76
$GBGSV,3,3,11,05,21,125,,21,76,137,,22,34,050,,1*43
$GNGSA,A,3,01,03,08,10,14,17,21,22,27,32,,,0.8,0.5,0.6,1*35
$GNGSA,A,3,67,68,69,75,83,,,,,,,,0.8,0.5,0.6,2*30
$GNGSA,A,3,03,05,08,13,15,27,34,,,,,,0.8,0.5,0.6,3*32
$GNGSA,A,3,06,09,11,12,14,16,,,,,,,0.8,0.5,0.6,4*31
$GNVTG,108.5,T,107.2,M,57.2,N,105.9,K,A*08
$GNRMC,061109.00,A,4812.663791,N,01446.430348,E,57.2,108.5,181022,1.3,E,A,V*64
$GNGGA,061109.00,4812.663791,N,01446.430348,E,1,12,0.5,241.4,M,44.5,M,,*71
$GPGSV,3,1,11,01,53,298,31,03,31,239,26,08,47,185,21,10,19,057,29,1*69
$GPGSV,3,2,11,14,17,296,19,17,09,319,18,21,80,323,24,22,45,115,26,1*61
$GPGSV,3,3,11,27,18,161,22,32,43,073,30,24,00,000,,1*59
$GLGSV,3,1,09,82,02,127,10,75,09,307,18,69,56,188,28,84,63,331,10,1*76
