$GPGSV,3,1,12,05,36,224,27,13,82,302,25,14,62,087,20,15,49,298,26,1*68
$GPGSV,3,2,12,24,10,265,21,07,09,075,,08,04,023,,17,13,123,,1*66
$GPGSV,3,3,12,18,02,293,,20,10,195,,23,10,326,,30,42,071,,1*6E
$GLGSV,3,1,10,74,07,045,,66,57,312,,77,06,229,,76,54,236,,1*74
$GLGSV,3,2,10,75,61,033,,65,54,167,,84,08,047,,83,07,350,,1*72
$GLGSV,3,3,10,67,07,326,,72,06,151,,1*7E
$GAGSV,2,1,08,04,21,306,,07,00,000,,11,01,303,,19,78,272,,7*7C
$GAGSV,2,2,08,21,63,182,,27,50,059,,30,01,040,,36,03,348,,7*75
$GBGSV,3,1,10,02,04,106,,05,18,127,,07,26,050,,09,00,000,,1*73
$GBGSV,3,2,10,10,36,061,,11,04,088,,12,07,042,,20,35,306,,1*72
$GBGSV,3,3,10,23,84,064,,25,31,060,,1*7B
$GNGSA,A,3,05,13,14,15,24,30,,,,,,,1.7,1.4,0.9,1*38
$GNGSA,A,3,66,75,76,,,,,,,,,,1.7,1.4,0.9,2*3B
$GNGSA,A,3,19,,,,,,,,,,,,1.7,1.4,0.9,3*31
$GNVTG,270.0,T,268.6,M,39.6,N,73.3,K,A*39
$GNRMC,155233.91,A,4811.677219,N,01501.039216,E,39.6,270.0,181022,1.4,E,A,V*64
$GNGGA,155233.91,4811.677219,N,01501.039216,E,1,10,1.4,253.9,M,44.4,M,,*7E
$GNGSA,A,3,05,13,14,15,24,30,,,,,,,1.7,1.4,0.9,1*38
$GNGSA,A,3,66,75,76,,,,,,,,,,1.7,1.4,0.9,2*3B
$GNGSA,A,3,19,,,,,,,,,,,,1.7,1.4,0.9,3*31
$GNVTG,270.1,T,268.7,M,39.5,N,73.2,K,A*3B
$GNRMC,155235.00,A,4811.677235,N,01501.021358,E,39.5,270.1,181022,1.4,E,A,V*64
$GNGGA,155235.00,4811.677235,N,01501.021358,E,1,10,1.4,254.0,M,44.4,M,,*72
$GPGSV,3,1,12,05,36,224,27,13,82,302,19,14,62,087,19,15,49,298,34,1*6E
$GPGSV,3,2,12,20,10,195,22,24,10,265,19,07,09,075,,08,04,023,,1*67
$GPGSV,3,3,12,17,13,123,,18,02,293,,23,10,326,,30,42,071,,1*64
$GLGSV,3,1,10,66,57,312,26,76,54,236,29,75,61,033,23,65,54,167,20,1*75
$GLGSV,3,2,10,74,07,045,,77,06,229,,84,08,047,,83,07,350,,1*7F
$GLGSV,3,3,10,67,07,326,,72,06,151,,1*7E
$GAGSV,2,1,08,04,21,306,,07,00,000,,11,01,303,,19,78,272,,7*7C
$GAGSV,2,2,08,21,63,182,,27,50,059,,30,01,040,,36,03,348,,7*75
$GBGSV,3,1,10,20,35,306,22,23,84,064,25,02,04,106,,05,18,127,,1*75
$GBGSV,3,2,10,07,26,050,,09,00,000,,10,36,061,,11,04,088,,1*7E
$GBGSV,3,3,10,12,07,042,,25,31,060,,1*76
$GNGSA,A,3,05,13,14,15,20,24,30,,,,,,1.4,1.1,0.8,1*3D
$GNGSA,A,3,66,75,76,,,,,,,,,,1.4,1.1,0.8,2*3C
$GNGSA,A,3,19,,,,,,,,,,,,1.4,1.1,0.8,3*36
$GNVTG,267.7,T,266.3,M,44.1,N,81.6,K,A*36
$GNRMC,155236.00,A,4811.674200,N,01501.005573,E,44.1,267.7,181022,1.4,E,A,V*65
$GNGGA,155236.00,4811.674200,N,01501.005573,E,1,11,1.1,256.3,M,44.4,M,,*78
$GPGSV,3,1,10,05,36,224,28,13,82,302,26,14,62,087,20,15,49,298,27,1*67
$GPGSV,3,2,10,20,10,195,16,24,10,265,19,30,42,071,19,07,09,075,,1*64
$GPGSV,3,3,10,17,13,123,,23,10,326,,1*66
$GLGSV,1,1,04,66,57,312,29,76,54,236,30,75,61,033,29,65,54,167,22,1*7D
$GAGSV,1,1,04,04,21,306,,19,78,272,,21,63,182,,27,50,059,,7*74
$GBGSV,2,1,06,20,35,306,23,23,84,064,24,05,18,127,,07,26,050,,1*74
$GBGSV,2,2,06,10,36,061,,25,31,060,,1*70
$GNGSA,A,3,05,13,14,15,20,24,30,,,,,,1.4,1.1,0.8,1*3D
$GNGSA,A,3,66,75,76,,,,,,,,,,1.4,1.1,0.8,2*3C
$GNGSA,A,3,19,,,,,,,,,,,,1.4,1.1,0.8,3*36
$GNVTG,270.8,T,269.4,M,43.4,N,80.4,K,A*36
$GNRMC,155237.00,A,4811.674384,N,01500.988820,E,43.4,270.8,181022,1.4,E,A,V*64
$GNGGA,155237.00,4811.674384,N,01500.988820,E,1,11,1.1,250.1,M,44.4,M,,*76
$GPGSV,3,1,10,05,36,224,23,07,09,075,15,13,82,302,22,14,62,087,19,1*65
$GPGSV,3,2,10,15,49,298,21,20,10,195,16,24,10,265,18,30,42,071,17,1*6E
$GPGSV,3,3,10,17,13,123,,23,10,326,,1*66
$GLGSV,1,1,04,66,57,312,23,76,54,236,21,75,61,033,23,65,54,167,22,1*7D
$GAGSV,1,1,04,04,21,306,,19,78,272,,21,63,182,,27,50,059,,7*74
$GBGSV,2,1,06,20,35,306,20,23,84,064,19,05,18,127,,07,26,050,,1*79
$GBGSV,2,2,06,10,36,061,,25,31,060,,1*70
$GNGSA,A,3,05,07,13,14,15,20,24,30,,,,,1.3,1.0,0.8,1*3C
$GNGSA,A,3,66,75,76,,,,,,,,,,1.3,1.0,0.8,2*3A
$GNGSA,A,3,19,,,,,,,,,,,,1.3,1.0,0.8,3*30
$GNVTG,267.1,T,265.7,M,42.8,N,79.3,K,A*3A
$GNRMC,155238.00,A,4811.673495,N,01500.973043,E,42.8,267.1,181022,1.4,E,A,V*60
$GNGGA,155238.00,4811.673495,N,01500.973043,E,1,12,1.0,247.6,M,44.4,M,,*73
$GPGSV,3,1,10,05,36,224,26,07,09,075,15,13,82,302,21,14,62,087,21,1*68
$GPGSV,3,2,10,15,49,298,20,17,13,123,15,20,10,195,16,24,10,265,18,1*6A
$GPGSV,3,3,10,30,42,071,17,23,10,326,,1*67
$GLGSV,1,1,04,66,57,312,24,76,54,236,18,75,61,033,20,65,54,167,21,1*70
$GAGSV,1,1,04,04,21,306,19,27,50,059,19,19,78,272,,21,63,182,,7*74
$GBGSV,2,1,06,20,35,306,23,23,84,064,18,25,31,060,18,05,18,127,,1*77
$GBGSV,2,2,06,07,26,050,,10,36,061,,1*75
$GNGSA,A,3,05,07,13,14,15,17,20,24,30,,,,1.1,0.8,0.7,1*3E
$GNGSA,A,3,66,75,76,,,,,,,,,,1.1,0.8,0.7,2*3E
$GNGSA,A,3,04,27,,,,,,,,,,,1.1,0.8,0.7,3*3D
$GNVTG,268.8,T,267.4,M,42.9,N,79.4,K,A*3B
$GNRMC,155239.00,A,4811.673628,N,01500.955188,E,42.9,268.8,181022,1.4,E,A,V*60
$GNGGA,155239.00,4811.673628,N,01500.955188,E,1,12,0.8,248.7,M,44.4,M,,*73
$GPGSV,3,1,10,05,36,224,25,07,09,075,15,13,82,302,18,14,62,087,18,1*6B
$GPGSV,3,2,10,15,49,298,19,17,13,123,16,20,10,195,16,24,10,265,18,1*63
$GPGSV,3,3,10,30,42,071,17,23,10,326,,1*67
$GLGSV,1,1,04,66,57,312,23,76,54,236,18,75,61,033,20,65,54,167,23,1*75
$GAGSV,1,1,04,04,21,306,19,27,50,059,19,19,78,272,,21,63,182,,7*74
$GBGSV,2,1,06,20,35,306,20,23,84,064,18,25,31,060,19,05,18,127,,1*75
$GBGSV,2,2,06,07,26,050,,10,36,061,,1*75
$GNGSA,A,3,05,07,13,14,15,17,20,24,30,,,,1.1,0.8,0.7,1*3E
$GNGSA,A,3,66,75,76,,,,,,,,,,1.1,0.8,0.7,2*3E
$GNGSA,A,3,04,27,,,,,,,,,,,1.1,0.8,0.7,3*3D
$GNVTG,269.8,T,268.4,M,41.1,N,76.1,K,A*34
$GNRMC,155240.00,A,4811.673796,N,01500.937934,E,41.1,269.8,181022,1.4,E,A,V*6B
$GNGGA,155240.00,4811.673796,N,01500.937934,E,1,12,0.8,248.7,M,44.4,M,,*72
$GPGSV,3,1,10,05,36,224,26,07,09,075,15,13,82,302,16,14,62,087,20,1*6D
$GPGSV,3,2,10,15,49,298,21,17,13,123,18,20,10,195,16,24,10,265,18,1*66
$GPGSV,3,3,10,30,42,071,17,23,10,326,,1*67
$GLGSV,1,1,04,66,57,312,23,76,54,236,18,75,61,033,20,65,54,167,25,1*73
$GAGSV,1,1,04,04,21,306,19,27,50,059,20,19,78,272,,21,63,182,,7*7E
$GBGSV,2,1,06,10,36,061,14,20,35,306,21,23,84,064,20,25,31,060,20,1*7B
$GBGSV,2,2,06,05,18,127,,07,26,050,,1*7E
$GNGSA,A,3,05,07,13,14,15,17,20,24,30,,,,1.1,0.8,0.7,1*3E
$GNGSA,A,3,66,75,76,,,,,,,,,,1.1,0.8,0.7,2*3E
$GNGSA,A,3,04,27,,,,,,,,,,,1.1,0.8,0.7,3*3D
$GNGSA,A,3,10,,,,,,,,,,,,1.1,0.8,0.7,4*3A
$GNVTG,269.5,T,268.1,M,41.6,N,77.1,K,A*3A
$GNRMC,155241.00,A,4811.673610,N,01500.921028,E,41.6,269.5,181022,1.4,E,A,V*6C
$GNGGA,155241.00,4811.673610,N,01500.921028,E,1,12,0.8,248.8,M,44.4,M,,*70
$GPGSV,3,1,10,05,36,224,26,07,09,075,15,13,82,302,18,14,62,087,20,1*63
$GPGSV,3,2,10,15,49,298,20,17,13,123,23,20,10,195,16,24,10,265,18,1*6F
$GPGSV,3,3,10,30,42,071,16,23,10,326,,1*66
$GLGSV,1,1,04,66,57,312,24,76,54,236,18,75,61,033,20,65,54,167,25,1*74
$GAGSV,1,1,04,04,21,306,19,19,78,272,16,27,50,059,20,21,63,182,,7*79
$GBGSV,2,1,06,10,36,061,14,20,35,306,22,23,84,064,21,25,31,060,19,1*73
$GBGSV,2,2,06,05,18,127,,07,26,050,,1*7E
$GNGSA,A,3,05,07,13,14,15,17,20,24,30,,,,1.1,0.8,0.7,1*3E
$GNGSA,A,3,66,75,76,,,,,,,,,,1.1,0.8,0.7,2*3E
$GNGSA,A,3,04,19,27,,,,,,,,,,1.1,0.8,0.7,3*35
$GNGSA,A,3,10,,,,,,,,,,,,1.1,0.8,0.7,4*3A
$GNVTG,270.5,T,269.1,M,40.0,N,74.1,K,A*37
$GNRMC,155242.00,A,4811.673791,N,01500.907747,E,40.0,270.5,181022,1.4,E,A,V*62
$GNGGA,155242.00,4811.673791,N,01500.907747,E,1,12,0.8,242.9,M,44.4,M,,*7A
$GPGSV,3,1,10,05,36,224,27,07,09,075,15,13,82,302,20,14,62,087,17,1*6D
$GPGSV,3,2,10,15,49,298,22,17,13,123,26,20,10,195,16,24,10,265,18,1*68
$GPGSV,3,3,10,30,42,071,16,23,10,326,,1*66
$GLGSV,1,1,04,66,57,312,25,76,54,236,15,75,61,033,12,65,54,167,28,1*74
$GAGSV,1,1,04,04,21,306,19,19,78,272,16,27,50,059,21,21,63,182,,7*78
$GBGSV,2,1,06,10,36,061,14,20,35,306,22,23,84,064,22,25,31,060,21,1*7B
$GBGSV,2,2,06,05,18,127,,07,26,050,,1*7E
$GNGSA,A,3,05,07,13,14,15,17,24,30,,,,,1.2,0.9,0.7,1*3E
$GNGSA,A,3,66,75,76,,,,,,,,,,1.2,0.9,0.7,2*3C
$GNGSA,A,3,04,19,27,,,,,,,,,,1.2,0.9,0.7,3*37
$GNGSA,A,3,10,,,,,,,,,,,,1.2,0.9,0.7,4*38
$GNVTG,269.9,T,268.5,M,38.2,N,70.7,K,A*39
$GNRMC,155243.00,A,4811.673648,N,01500.894828,E,38.2,269.9,181022,1.4,E,A,V*62
$GNGGA,155243.00,4811.673648,N,01500.894828,E,1,12,0.9,238.3,M,44.4,M,,*75
$GPGSV,3,1,10,05,36,224,28,07,09,075,15,13,82,302,20,14,62,087,19,1*6C
$GPGSV,3,2,10,15,49,298,24,17,13,123,25,20,10,195,16,24,10,265,18,1*6D
$GPGSV,3,3,10,30,42,071,16,23,10,326,,1*66
$GLGSV,1,1,04,66,57,312,24,76,54,236,23,75,61,033,12,65,54,167,29,1*71
$GAGSV,1,1,04,04,21,306,19,19,78,272,16,27,50,059,18,21,63,182,,7*72
$GBGSV,2,1,06,10,36,061,14,20,35,306,22,23,84,064,23,25,31,060,21,1*7A
$GBGSV,2,2,06,05,18,127,,07,26,050,,1*7E
$GNGSA,A,3,05,07,13,14,15,17,24,30,,,,,1.2,0.9,0.7,1*3E
$GNGSA,A,3,66,75,76,,,,,,,,,,1.2,0.9,0.7,2*3C
$GNGSA,A,3,04,19,27,,,,,,,,,,1.2,0.9,0.7,3*37
$GNGSA,A,3,10,,,,,,,,,,,,1.2,0.9,0.7,4*38
$GNVTG,270.0,T,268.6,M,39.1,N,72.3,K,A*3F
$GNRMC,155244.00,A,4811.673595,N,01500.878817,E,39.1,270.0,181022,1.4,E,A,V*6B
$GNGGA,155244.00,4811.673595,N,01500.878817,E,1,12,0.9,237.8,M,44.4,M,,*7B
$GPGSV,3,1,10,05,36,224,26,07,09,075,15,13,82,302,21,14,62,087,20,1*69
$GPGSV,3,2,10,15,49,298,25,17,13,123,25,20,10,195,16,24,10,265,18,1*6C
$GPGSV,3,3,10,30,42,071,16,23,10,326,,1*66
$GLGSV,1,1,04,66,57,312,23,76,54,236,24,75,61,033,18,65,54,167,29,1*7B
$GAGSV,1,1,04,04,21,306,19,19,78,272,16,27,50,059,17,21,63,182,,7*7D
$GBGSV,2,1,06,10,36,061,14,20,35,306,23,23,84,064,20,25,31,060,19,1*73
$GBGSV,2,2,06,05,18,127,,07,26,050,,1*7E
$GNGSA,A,3,05,07,13,14,15,17,24,30,,,,,1.3,1.0,0.8,1*38
$GNGSA,A,3,66,75,76,,,,,,,,,,1.3,1.0,0.8,2*3A
$GNGSA,A,3,19,27,,,,,,,,,,,1.3,1.0,0.8,3*35
$GNGSA,A,3,10,,,,,,,,,,,,1.3,1.0,0.8,4*3E
$GNVTG,276.0,T,274.6,M,42.2,N,78.2,K,A*30
$GNRMC,155245.00,A,4811.677567,N,01500.861761,E,42.2,276.0,181022,1.4,E,A,V*6C
$GNGGA,155245.00,4811.677567,N,01500.861761,E,1,12,1.0,236.0,M,44.4,M,,*74
$GPGSV,3,1,10,05,36,224,23,07,09,075,15,13,82,302,21,14,62,087,17,1*68
$GPGSV,3,2,10,15,49,298,24,17,13,123,19,20,10,195,16,24,10,265,19,1*63
$GPGSV,3,3,10,30,42,071,22,23,10,326,,1*61
$GLGSV,1,1,04,66,57,312,22,76,54,236,25,75,61,033,18,65,54,167,27,1*75
$GAGSV,1,1,04,04,21,306,19,19,78,272,16,27,50,059,22,21,63,182,,7*7B
$GBGSV,2,1,06,10,36,061,14,20,35,306,20,23,84,064,19,25,31,060,19,1*7A
$GBGSV,2,2,06,05,18,127,,07,26,050,,1*7E
$GNGSA,A,3,05,07,13,14,15,17,24,30,,,,,1.3,1.0,0.8,1*38
$GNGSA,A,3,66,75,76,,,,,,,,,,1.3,1.0,0.8,2*3A
$GNGSA,A,3,19,27,,,,,,,,,,,1.3,1.0,0.8,3*35
$GNGSA,A,3,10,,,,,,,,,,,,1.3,1.0,0.8,4*3E
$GNVTG,273.1,T,271.7,M,43.9,N,81.2,K,A*3C
$GNRMC,155246.00,A,4811.678042,N,01500.844650,E,43.9,273.1,181022,1.4,E,A,V*68
$GNGGA,155246.00,4811.678042,N,01500.844650,E,1,12,1.0,231.9,M,44.4,M,,*70
$GPGSV,3,1,10,05,36,224,22,07,09,075,15,13,82,302,21,14,62,087,17,1*69
$GPGSV,3,2,10,15,49,298,22,17,13,123,19,20,10,195,16,24,10,265,19,1*65
$GPGSV,3,3,10,30,42,071,23,23,10,326,,1*60
$GLGSV,1,1,04,66,57,312,22,76,54,236,26,75,61,033,18,65,54,167,25,1*74
$GAGSV,1,1,04,04,21,306,19,19,78,272,16,27,50,059,22,21,63,182,,7*7B
$GBGSV,2,1,06,10,36,061,14,20,35,306,17,23,84,064,17,25,31,060,19,1*70
$GBGSV,2,2,06,05,18,127,,07,26,050,,1*7E
$GNGSA,A,3,05,07,13,14,15,17,24,30,,,,,1.3,1.0,0.8,1*38
$GNGSA,A,3,66,75,76,,,,,,,,,,1.3,1.0,0.8,2*3A
$GNGSA,A,3,19,27,,,,,,,,,,,1.3,1.0,0.8,3*35
$GNGSA,A,3,10,,,,,,,,,,,,1.3,1.0,0.8,4*3E
$GNVTG,275.6,T,274.2,M,42.9,N,79.5,K,A*3C
$GNRMC,155247.00,A,4811.679816,N,01500.826864,E,42.9,275.6,181022,1.4,E,A,V*6C
$GNGGA,155247.00,4811.679816,N,01500.826864,E,1,12,1.0,231.6,M,44.4,M,,*7B
$GPGSV,3,1,10,05,36,224,23,07,09,075,15,13,82,302,20,14,62,087,15,1*6B
$GPGSV,3,2,10,15,49,298,23,17,13,123,19,20,10,195,16,24,10,265,19,1*64
$GPGSV,3,3,10,30,42,071,22,23,10,326,,1*61
$GLGSV,1,1,04,66,57,312,23,76,54,236,25,75,61,033,16,65,54,167,25,1*78
$GAGSV,1,1,04,04,21,306,19,19,78,272,18,27,50,059,23,21,63,182,,7*74
$GBGSV,2,1,06,10,36,061,16,20,35,306,17,23,84,064,17,25,31,060,19,1*72
$GBGSV,2,2,06,05,18,127,,07,26,050,,1*7E
$GNGSA,A,3,05,07,13,14,15,17,24,30,,,,,1.3,1.0,0.8,1*38
$GNGSA,A,3,66,75,76,,,,,,,,,,1.3,1.0,0.8,2*3A
$GNGSA,A,3,19,27,,,,,,,,,,,1.3,1.0,0.8,3*35
$GNGSA,A,3,10,,,,,,,,,,,,1.3,1.0,0.8,4*3E
$GNVTG,276.6,T,275.2,M,43.8,N,81.2,K,A*3E
$GNRMC,155248.00,A,4811.681163,N,01500.808633,E,43.8,276.6,181022,1.4,E,A,V*6C
$GNGGA,155248.00,4811.681163,N,01500.808633,E,1,12,1.0,231.5,M,44.4,M,,*7B
$GPGSV,3,1,10,05,36,224,26,07,09,075,15,13,82,302,17,14,62,087,17,1*68
$GPGSV,3,2,10,15,49,298,21,17,13,123,19,20,10,195,16,24,10,265,16,1*69
$GPGSV,3,3,10,30,42,071,18,23,10,326,,1*68
$GLGSV,1,1,04,66,57,312,17,76,54,236,25,75,61,033,23,65,54,167,27,1*7B
$GAGSV,1,1,04,04,21,306,19,19,78,272,19,27,50,059,19,21,63,182,,7*7C
$GBGSV,2,1,06,10,36,061,16,20,35,306,14,23,84,064,17,25,31,060,19,1*71
$GBGSV,2,2,06,05,18,127,,07,26,050,,1*7E
$GNGSA,A,3,05,07,13,14,15,17,24,30,,,,,1.3,1.0,0.8,1*38
$GNGSA,A,3,66,75,76,,,,,,,,,,1.3,1.0,0.8,2*3A
$GNGSA,A,3,19,27,,,,,,,,,,,1.3,1.0,0.8,3*35
$GNGSA,A,3,10,,,,,,,,,,,,1.3,1.0,0.8,4*3E
$GNVTG,276.8,T,275.4,M,43.7,N,81.0,K,A*3B
$GNRMC,155249.00,A,4811.683318,N,01500.789929,E,43.7,276.8,181022,1.4,E,A,V*62
$GNGGA,155249.00,4811.683318,N,01500.789929,E,1,12,1.0,231.0,M,44.4,M,,*71
$GPGSV,3,1,10,05,36,224,27,07,09,075,15,13,82,302,19,14,62,087,17,1*67
$GPGSV,3,2,10,15,49,298,19,17,13,123,16,20,10,195,16,24,10,265,22,1*6A
$GPGSV,3,3,10,30,42,071,18,23,10,326,,1*68
$GLGSV,1,1,04,66,57,312,19,76,54,236,23,75,61,033,24,65,54,167,27,1*74
$GAGSV,1,1,04,04,21,306,19,19,78,272,19,27,50,059,19,21,63,182,,7*7C
$GBGSV,2,1,06,10,36,061,16,20,35,306,21,23,84,064,15,25,31,060,19,1*75
$GBGSV,2,2,06,05,18,127,,07,26,050,,1*7E
$GNGSA,A,3,05,07,13,14,15,17,24,30,,,,,1.3,1.0,0.8,1*38
$GNGSA,A,3,66,75,76,,,,,,,,,,1.3,1.0,0.8,2*3A
$GNGSA,A,3,19,27,,,,,,,,,,,1.3,1.0,0.8,3*35
$GNGSA,A,3,10,,,,,,,,,,,,1.3,1.0,0.8,4*3E
$GNVTG,276.8,T,275.4,M,42.8,N,79.3,K,A*31
$GNRMC,155250.00,A,4811.685388,N,01500.772606,E,42.8,276.8,181022,1.4,E,A,V*6D
$GNGGA,155250.00,4811.685388,N,01500.772606,E,1,12,1.0,232.1,M,44.4,M,,*72
$GPGSV,3,1,10,05,36,224,26,07,09,075,15,13,82,302,21,14,62,087,14,1*6E
$GPGSV,3,2,10,15,49,298,19,17,13,123,20,20,10,195,16,24,10,265,23,1*6E
$GPGSV,3,3,10,30,42,071,18,23,10,326,,1*68
$GLGSV,1,1,04,66,57,312,20,76,54,236,19,75,61,033,26,65,54,167,27,1*75
$GAGSV,1,1,04,04,21,306,19,19,78,272,18,27,50,059,19,21,63,182,,7*7D
$GBGSV,2,1,06,10,36,061,15,20,35,306,21,23,84,064,17,25,31,060,12,1*7F
$GBGSV,2,2,06,05,18,127,,07,26,050,,1*7E
$GNGSA,A,3,05,07,13,14,15,17,24,30,,,,,1.3,1.0,0.8,1*38
$GNGSA,A,3,66,75,76,,,,,,,,,,1.3,1.0,0.8,2*3A
$GNGSA,A,3,19,27,,,,,,,,,,,1.3,1.0,0.8,3*35
$GNGSA,A,3,10,,,,,,,,,,,,1.3,1.0,0.8,4*3E
$GNVTG,273.1,T,271.7,M,43.0,N,79.6,K,A*36
$GNRMC,155251.00,A,4811.684491,N,01500.757153,E,43.0,273.1,181022,1.4,E,A,V*67
$GNGGA,155251.00,4811.684491,N,01500.757153,E,1,12,1.0,234.6,M,44.4,M,,*7C
$GPGSV,3,1,10,05,36,224,24,07,09,075,15,13,82,302,22,14,62,087,14,1*6F
$GPGSV,3,2,10,15,49,298,18,17,13,123,20,20,10,195,16,24,10,265,20,1*6C
$GPGSV,3,3,10,30,42,071,18,23,10,326,,1*68
$GLGSV,1,1,04,66,57,312,22,76,54,236,19,75,61,033,25,65,54,167,25,1*76
$GAGSV,1,1,04,04,21,306,19,19,78,272,17,27,50,059,17,21,63,182,,7*7C
$GBGSV,2,1,06,10,36,061,19,20,35,306,16,23,84,064,17,25,31,060,12,1*77
$GBGSV,2,2,06,05,18,127,,07,26,050,,1*7E
$GNGSA,A,3,05,07,13,14,15,17,24,30,,,,,1.3,1.0,0.8,1*38
$GNGSA,A,3,66,75,76,,,,,,,,,,1.3,1.0,0.8,2*3A
$GNGSA,A,3,19,27,,,,,,,,,,,1.3,1.0,0.8,3*35
$GNGSA,A,3,10,,,,,,,,,,,,1.3,1.0,0.8,4*3E
$GNVTG,270.6,T,269.2,M,42.6,N,78.9,K,A*37
$GNRMC,155252.00,A,4811.684755,N,01500.739534,E,42.6,270.6,181022,1.4,E,A,V*61
$GNGGA,155252.00,4811.684755,N,01500.739534,E,1,12,1.0,234.2,M,44.4,M,,*7D
$GPGSV,3,1,10,05,36,224,23,07,09,075,15,13,82,302,20,14,62,087,15,1*6B
$GPGSV,3,2,10,15,49,298,19,17,13,123,16,20,10,195,16,24,10,265,20,1*68
$GPGSV,3,3,10,30,42,071,18,23,10,326,,1*68
$GLGSV,1,1,04,66,57,312,24,76,54,236,19,75,61,033,22,65,54,167,24,1*76
$GAGSV,1,1,04,04,21,306,19,19,78,272,17,27,50,059,22,21,63,182,,7*7A
$GBGSV,2,1,06,10,36,061,19,20,35,306,16,23,84,064,17,25,31,060,15,1*70
$GBGSV,2,2,06,05,18,127,,07,26,050,,1*7E
$GNGSA,A,3,05,07,13,14,15,17,24,30,,,,,1.3,1.0,0.8,1*38
$GNGSA,A,3,66,75,76,,,,,,,,,,1.3,1.0,0.8,2*3A
$GNGSA,A,3,19,27,,,,,,,,,,,1.3,1.0,0.8,3*35
$GNGSA,A,3,10,,,,,,,,,,,,1.3,1.0,0.8,4*3E
$GNVTG,269.4,T,268.0,M,41.5,N,76.8,K,A*31
$GNRMC,155253.00,A,4811.683664,N,01500.723139,E,41.5,269.4,181022,1.4,E,A,V*6C
$GNGGA,155253.00,4811.683664,N,01500.723139,E,1,12,1.0,236.2,M,44.4,M,,*78
$GPGSV,3,1,10,05,36,224,25,07,09,075,15,13,82,302,20,14,62,087,15,1*6D
$GPGSV,3,2,10,15,49,298,24,17,13,123,23,20,10,195,16,24,10,265,22,1*62
$GPGSV,3,3,10,30,42,071,19,23,10,326,,1*69
$GLGSV,1,1,04,66,57,312,19,76,54,236,15,75,61,033,20,65,54,167,28,1*7A
$GAGSV,1,1,04,04,21,306,19,19,78,272,17,27,50,059,20,21,63,182,,7*78
$GBGSV,2,1,06,10,36,061,19,20,35,306,16,23,84,064,20,25,31,060,15,1*74
$GBGSV,2,2,06,05,18,127,,07,26,050,,1*7E
$GNGSA,A,3,05,13,14,15,17,24,30,,,,,,1.3,1.1,0.8,1*3E
$GNGSA,A,3,66,75,76,,,,,,,,,,1.3,1.1,0.8,2*3B
$GNGSA,A,3,19,27,,,,,,,,,,,1.3,1.1,0.8,3*34
$GNGSA,A,3,10,,,,,,,,,,,,1.3,1.1,0.8,4*3F
$GNVTG,269.5,T,268.1,M,41.5,N,76.9,K,A*30
$GNRMC,155254.00,A,4811.682421,N,01500.706191,E,41.5,269.5,181022,1.4,E,A,V*6D
$GNGGA,155254.00,4811.682421,N,01500.706191,E,1,12,1.1,237.7,M,44.4,M,,*7D
$GPGSV,3,1,10,05,36,224,26,07,09,075,15,13,82,302,21,14,62,087,16,1*6C
$GPGSV,3,2,10,15,49,298,24,17,13,123,23,20,10,195,16,24,10,265,22,1*62
$GPGSV,3,3,10,30,42,071,20,23,10,326,,1*63
$GLGSV,1,1,04,66,57,312,23,76,54,236,25,75,61,033,19,65,54,167,29,1*7B
$GAGSV,1,1,04,04,21,306,19,19,78,272,19,27,50,059,16,21,63,182,,7*73
$GBGSV,2,1,06,10,36,061,15,20,35,306,14,23,84,064,24,25,31,060,18,1*73
$GBGSV,2,2,06,05,18,127,,07,26,050,,1*7E
$GNGSA,A,3,05,13,14,15,17,24,30,,,,,,1.3,1.1,0.8,1*3E
$GNGSA,A,3,66,75,76,,,,,,,,,,1.3,1.1,0.8,2*3B
$GNGSA,A,3,19,27,,,,,,,,,,,1.3,1.1,0.8,3*34
$GNGSA,A,3,10,,,,,,,,,,,,1.3,1.1,0.8,4*3F
$GNVTG,271.7,T,270.3,M,41.2,N,76.4,K,A*3A
$GNRMC,155255.00,A,4811.683198,N,01500.690124,E,41.2,271.7,181022,1.4,E,A,V*66
$GNGGA,155255.00,4811.683198,N,01500.690124,E,1,12,1.1,237.5,M,44.4,M,,*78
$GPGSV,3,1,10,05,36,224,24,07,09,075,15,13,82,302,23,14,62,087,16,1*6C
$GPGSV,3,2,10,15,49,298,23,17,13,123,23,20,10,195,16,24,10,265,21,1*66
$GPGSV,3,3,10,30,42,071,22,23,10,326,,1*61
$GLGSV,1,1,04,66,57,312,26,76,54,236,28,75,61,033,19,65,54,167,28,1*72
$GAGSV,1,1,04,04,21,306,19,19,78,272,18,27,50,059,18,21,63,182,,7*7C
$GBGSV,2,1,06,10,36,061,15,20,35,306,20,23,84,064,22,25,31,060,18,1*72
$GBGSV,2,2,06,05,18,127,,07,26,050,,1*7E
$GNGSA,A,3,05,13,14,15,17,24,30,,,,,,1.3,1.1,0.8,1*3E
$GNGSA,A,3,66,75,76,,,,,,,,,,1.3,1.1,0.8,2*3B
$GNGSA,A,3,19,27,,,,,,,,,,,1.3,1.1,0.8,3*34
$GNGSA,A,3,10,,,,,,,,,,,,1.3,1.1,0.8,4*3F
$GNVTG,274.5,T,273.1,M,41.9,N,77.6,K,A*34
$GNRMC,155256.00,A,4811.684149,N,01500.672297,E,41.9,274.5,181022,1.4,E,A,V*65
$GNGGA,155256.00,4811.684149,N,01500.672297,E,1,12,1.1,236.1,M,44.4,M,,*72
$GPGSV,3,1,10,05,36,224,22,07,09,075,15,13,82,302,23,14,62,087,16,1*6A
$GPGSV,3,2,10,15,49,298,22,17,13,123,23,20,10,195,16,24,10,265,21,1*67
$GPGSV,3,3,10,30,42,071,21,23,10,326,,1*62
$GLGSV,1,1,04,66,57,312,25,76,54,236,34,75,61,033,17,65,54,167,23,1*79
$GAGSV,1,1,04,04,21,306,19,19,78,272,18,27,50,059,20,21,63,182,,7*77
$GBGSV,2,1,06,10,36,061,15,20,35,306,20,23,84,064,25,25,31,060,18,1*75
$GBGSV,2,2,06,05,18,127,,07,26,050,,1*7E
$GNGSA,A,3,05,13,14,15,17,24,30,,,,,,1.3,1.1,0.8,1*3E
$GNGSA,A,3,66,75,76,,,,,,,,,,1.3,1.1,0.8,2*3B
$GNGSA,A,3,19,27,,,,,,,,,,,1.3,1.1,0.8,3*34
$GNGSA,A,3,10,,,,,,,,,,,,1.3,1.1,0.8,4*3F
$GNVTG,277.0,T,275.6,M,42.1,N,78.0,K,A*31
$GNRMC,155257.00,A,4811.684728,N,01500.654958,E,42.1,277.0,181022,1.4,E,A,V*64
$GNGGA,155257.00,4811.684728,N,01500.654958,E,1,12,1.1,234.9,M,44.4,M,,*74
$GPGSV,3,1,10,05,36,224,19,07,09,075,15,13,82,302,22,14,62,087,16,1*63
$GPGSV,3,2,10,15,49,298,24,17,13,123,23,20,10,195,16,24,10,265,21,1*61
$GPGSV,3,3,10,30,42,071,22,23,10,326,,1*61
$GLGSV,1,1,04,66,57,312,23,76,54,236,35,75,61,033,24,65,54,167,19,1*77
$GAGSV,1,1,04,04,21,306,19,19,78,272,18,27,50,059,18,21,63,182,,7*7C
$GBGSV,2,1,06,10,36,061,15,20,35,306,20,23,84,064,21,25,31,060,18,1*71
$GBGSV,2,2,06,05,18,127,,07,26,050,,1*7E
$GNGSA,A,3,05,13,14,15,17,24,30,,,,,,1.3,1.1,0.8,1*3E
$GNGSA,A,3,66,75,76,,,,,,,,,,1.3,1.1,0.8,2*3B
$GNGSA,A,3,19,27,,,,,,,,,,,1.3,1.1,0.8,3*34
$GNGSA,A,3,10,,,,,,,,,,,,1.3,1.1,0.8,4*3F
$GNVTG,279.4,T,278.0,M,41.9,N,77.6,K,A*32
$GNRMC,155258.00,A,4811.686569,N,01500.638002,E,41.9,279.4,181022,1.4,E,A,V*63
$GNGGA,155258.00,4811.686569,N,01500.638002,E,1,12,1.1,235.9,M,44.4,M,,*73
$GPGSV,3,1,10,05,36,224,20,07,09,075,15,13,82,302,22,14,62,087,23,1*6F
$GPGSV,3,2,10,15,49,298,22,17,13,123,23,20,10,195,16,24,10,265,21,1*67
$GPGSV,3,3,10,30,42,071,21,23,10,326,,1*62
$GLGSV,1,1,04,66,57,312,25,76,54,236,35,75,61,033,25,65,54,167,21,1*7B
$GAGSV,1,1,04,04,21,306,19,19,78,272,18,27,50,059,18,21,63,182,,7*7C
$GBGSV,2,1,06,10,36,061,15,20,35,306,20,23,84,064,19,25,31,060,18,1*7A
$GBGSV,2,2,06,05,18,127,,07,26,050,,1*7E
$GNGSA,A,3,05,13,14,15,17,24,30,,,,,,1.3,1.1,0.8,1*3E
$GNGSA,A,3,66,75,76,,,,,,,,,,1.3,1.1,0.8,2*3B
$GNGSA,A,3,19,27,,,,,,,,,,,1.3,1.1,0.8,3*34
$GNGSA,A,3,10,,,,,,,,,,,,1.3,1.1,0.8,4*3F
$GNVTG,279.6,T,278.2,M,41.2,N,76.3,K,A*3D
$GNRMC,155259.00,A,4811.688624,N,01500.620678,E,41.2,279.6,181022,1.4,E,A,V*6D
$GNGGA,155259.00,4811.688624,N,01500.620678,E,1,12,1.1,235.3,M,44.4,M,,*7E
$GPGSV,3,1,10,05,36,224,23,07,09,075,15,13,82,302,19,14,62,087,24,1*63
$GPGSV,3,2,10,15,49,298,24,17,13,123,23,20,10,195,16,24,10,265,21,1*61
$GPGSV,3,3,10,30,42,071,17,23,10,326,,1*67
$GLGSV,1,1,04,66,57,312,26,76,54,236,31,75,61,033,23,65,54,167,23,1*78
$GAGSV,1,1,04,04,21,306,19,19,78,272,14,27,50,059,18,21,63,182,,7*70
$GBGSV,2,1,06,10,36,061,15,20,35,306,20,23,84,064,19,25,31,060,18,1*7A
$GBGSV,2,2,06,05,18,127,,07,26,050,,1*7E
$GNGSA,A,3,05,13,14,15,17,24,30,,,,,,1.3,1.1,0.8,1*3E
$GNGSA,A,3,66,75,76,,,,,,,,,,1.3,1.1,0.8,2*3B
$GNGSA,A,3,19,27,,,,,,,,,,,1.3,1.1,0.8,3*34
$GNGSA,A,3,10,,,,,,,,,,,,1.3,1.1,0.8,4*3F
$GNVTG,279.1,T,277.7,M,41.9,N,77.5,K,A*3C
$GNRMC,155300.00,A,4811.690387,N,01500.602903,E,41.9,279.1,181022,1.4,E,A,V*6A
$GNGGA,155300.00,4811.690387,N,01500.602903,E,1,12,1.1,235.2,M,44.4,M,,*74
$GPGSV,3,1,10,05,36,224,21,07,09,075,15,13,82,302,17,14,62,087,21,1*6A
$GPGSV,3,2,10,15,49,298,22,17,13,123,23,20,10,195,16,24,10,265,21,1*67
$GPGSV,3,3,10,30,42,071,17,23,10,326,,1*67
$GLGSV,1,1,04,66,57,312,21,76,54,236,24,75,61,033,19,65,54,167,22,1*73
$GAGSV,1,1,04,04,21,306,19,19,78,272,18,27,50,059,17,21,63,182,,7*73
$GBGSV,2,1,06,10,36,061,15,20,35,306,12,23,84,064,16,25,31,060,18,1*74
$GBGSV,2,2,06,05,18,127,,07,26,050,,1*7E
$GNGSA,A,3,05,13,14,15,24,30,,,,,,,1.6,1.4,0.9,1*39
$GNGSA,A,3,66,75,76,,,,,,,,,,1.6,1.4,0.9,2*3A
$GNGSA,A,3,19,27,,,,,,,,,,,1.6,1.4,0.9,3*35
$GNVTG,277.7,T,276.3,M,41.9,N,77.6,K,A*32
$GNRMC,155301.00,A,4811.692087,N,01500.586036,E,41.9,277.7,181022,1.4,E,A,V*62
$GNGGA,155301.00,4811.692087,N,01500.586036,E,1,11,1.4,234.8,M,44.4,M,,*79
$GPGSV,3,1,10,05,36,224,21,07,09,075,15,13,82,302,17,14,62,087,19,1*61
$GPGSV,3,2,10,15,49,298,21,17,13,123,11,24,10,265,21,30,42,071,17,1*69
$GPGSV,3,3,10,20,10,195,,23,10,326,,1*6C
$GLGSV,1,1,04,66,57,312,21,76,54,236,21,75,61,033,17,65,54,167,22,1*78
$GAGSV,1,1,04,04,21,306,19,19,78,272,18,27,50,059,20,21,63,182,,7*77
$GBGSV,2,1,06,10,36,061,15,20,35,306,12,23,84,064,16,25,31,060,18,1*74
$GBGSV,2,2,06,05,18,127,,07,26,050,,1*7E
$GNGSA,A,3,05,13,14,15,17,30,,,,,,,1.5,1.2,0.9,1*3C
$GNGSA,A,3,66,75,76,,,,,,,,,,1.5,1.2,0.9,2*3F
$GNGSA,A,3,19,27,,,,,,,,,,,1.5,1.2,0.9,3*30
$GNVTG,276.7,T,275.3,M,41.0,N,75.9,K,A*34
$GNRMC,155302.00,A,4811.693588,N,01500.568816,E,41.0,276.7,181022,1.4,E,A,V*68
$GNGGA,155302.00,4811.693588,N,01500.568816,E,1,11,1.2,235.2,M,44.4,M,,*76
$GPGSV,3,1,10,05,36,224,24,07,09,075,15,13,82,302,17,14,62,087,18,1*65
$GPGSV,3,2,10,15,49,298,23,17,13,123,17,24,10,265,21,30,42,071,18,1*62
$GPGSV,3,3,10,20,10,195,,23,10,326,,1*6C
$GLGSV,1,1,04,66,57,312,22,76,54,236,21,75,61,033,16,65,54,167,23,1*7B
$GAGSV,1,1,04,19,78,272,18,27,50,059,21,04,21,306,,21,63,182,,7*7E
$GBGSV,2,1,06,10,36,061,15,20,35,306,12,23,84,064,17,25,31,060,18,1*75
$GBGSV,2,2,06,05,18,127,,07,26,050,,1*7E
$GNGSA,A,3,05,13,14,15,17,30,,,,,,,1.5,1.2,0.9,1*3C
$GNGSA,A,3,66,75,76,,,,,,,,,,1.5,1.2,0.9,2*3F
$GNGSA,A,3,19,27,,,,,,,,,,,1.5,1.2,0.9,3*30
$GNVTG,276.0,T,274.6,M,40.9,N,75.7,K,A*31
$GNRMC,155303.00,A,4811.694510,N,01500.551584,E,40.9,276.0,181022,1.4,E,A,V*6C
$GNGGA,155303.00,4811.694510,N,01500.551584,E,1,11,1.2,235.9,M,44.4,M,,*76
$GPGSV,3,1,10,05,36,224,25,07,09,075,15,13,82,302,20,14,62,087,16,1*6E
$GPGSV,3,2,10,15,49,298,23,17,13,123,17,24,10,265,21,30,42,071,18,1*62
$GPGSV,3,3,10,20,10,195,,23,10,326,,1*6C
$GLGSV,1,1,04,66,57,312,20,76,54,236,22,75,61,033,19,65,54,167,22,1*74
$GAGSV,1,1,04,19,78,272,20,27,50,059,23,04,21,306,,21,63,182,,7*77
$GBGSV,2,1,06,10,36,061,15,20,35,306,12,23,84,064,18,25,31,060,18,1*7A
$GBGSV,2,2,06,05,18,127,,07,26,050,,1*7E
$GNGSA,A,3,05,13,14,15,17,30,,,,,,,1.5,1.2,0.9,1*3C
$GNGSA,A,3,66,75,76,,,,,,,,,,1.5,1.2,0.9,2*3F
$GNGSA,A,3,19,27,,,,,,,,,,,1.5,1.2,0.9,3*30
$GNVTG,276.0,T,274.6,M,40.7,N,75.3,K,A*3B
$GNRMC,155304.00,A,4811.695843,N,01500.534265,E,40.7,276.0,181022,1.4,E,A,V*64
$GNGGA,155304.00,4811.695843,N,01500.534265,E,1,11,1.2,237.8,M,44.4,M,,*73
$GPGSV,3,1,10,05,36,224,24,07,09,075,15,13,82,302,18,14,62,087,16,1*64
$GPGSV,3,2,10,15,49,298,25,17,13,123,21,24,10,265,21,30,42,071,19,1*60
$GPGSV,3,3,10,20,10,195,,23,10,326,,1*6C
$GLGSV,1,1,04,66,57,312,23,76,54,236,27,75,61,033,16,65,54,167,24,1*7B
$GAGSV,1,1,04,19,78,272,16,27,50,059,22,04,21,306,,21,63,182,,7*73
$GBGSV,2,1,06,10,36,061,15,20,35,306,12,23,84,064,19,25,31,060,18,1*7B
$GBGSV,2,2,06,05,18,127,,07,26,050,,1*7E
$GNGSA,A,3,05,13,14,15,17,30,,,,,,,1.5,1.2,0.9,1*3C
$GNGSA,A,3,66,75,76,,,,,,,,,,1.5,1.2,0.9,2*3F
$GNGSA,A,3,19,27,,,,,,,,,,,1.5,1.2,0.9,3*30
$GNVTG,276.3,T,274.9,M,39.3,N,72.7,K,A*3E
$GNRMC,155305.00,A,4811.697107,N,01500.518127,E,39.3,276.3,181022,1.4,E,A,V*6C
$GNGGA,155305.00,4811.697107,N,01500.518127,E,1,11,1.2,238.5,M,44.4,M,,*70
$GPGSV,3,1,10,05,36,224,25,07,09,075,15,13,82,302,22,14,62,087,18,1*62
$GPGSV,3,2,10,15,49,298,26,17,13,123,19,24,10,265,21,30,42,071,20,1*62
$GPGSV,3,3,10,20,10,195,,23,10,326,,1*6C
$GLGSV,1,1,04,66,57,312,25,76,54,236,31,75,61,033,16,65,54,167,23,1*7D
$GAGSV,1,1,04,19,78,272,17,27,50,059,20,04,21,306,,21,63,182,,7*70
$GBGSV,2,1,06,10,36,061,12,20,35,306,14,23,84,064,21,25,31,060,18,1*71
$GBGSV,2,2,06,05,18,127,,07,26,050,,1*7E
$GNGSA,A,3,05,13,14,15,17,30,,,,,,,1.5,1.2,0.9,1*3C
$GNGSA,A,3,66,75,76,,,,,,,,,,1.5,1.2,0.9,2*3F
$GNGSA,A,3,19,27,,,,,,,,,,,1.5,1.2,0.9,3*30
$GNGSA,A,3,10,,,,,,,,,,,,1.5,1.2,0.9,4*3B
$GNVTG,277.1,T,275.7,M,38.8,N,71.9,K,A*35
$GNRMC,155306.00,A,4811.698867,N,01500.502597,E,38.8,277.1,181022,1.4,E,A,V*62
$GNGGA,155306.00,4811.698867,N,01500.502597,E,1,12,1.2,238.1,M,44.4,M,,*70
$GPGSV,3,1,10,05,36,224,24,07,09,075,15,13,82,302,23,14,62,087,18,1*62
$GPGSV,3,2,10,15,49,298,24,17,13,123,18,24,10,265,12,30,42,071,20,1*61
$GPGSV,3,3,10,20,10,195,,23,10,326,,1*6C
$GLGSV,1,1,04,66,57,312,25,76,54,236,34,75,61,033,19,65,54,167,23,1*77
$GAGSV,1,1,04,19,78,272,17,27,50,059,20,04,21,306,,21,63,182,,7*70
$GBGSV,2,1,06,10,36,061,12,20,35,306,14,23,84,064,21,25,31,060,18,1*71
$GBGSV,2,2,06,05,18,127,,07,26,050,,1*7E
$GNGSA,A,3,05,13,14,15,17,24,30,,,,,,1.3,1.1,0.8,1*3E
$GNGSA,A,3,66,75,76,,,,,,,,,,1.3,1.1,0.8,2*3B
$GNGSA,A,3,19,27,,,,,,,,,,,1.3,1.1,0.8,3*34
$GNGSA,A,3,10,,,,,,,,,,,,1.3,1.1,0.8,4*3F
$GNVTG,277.6,T,276.2,M,38.3,N,70.8,K,A*3F
$GNRMC,155307.00,A,4811.699786,N,01500.486334,E,38.3,277.6,181022,1.4,E,A,V*6C
$GNGGA,155307.00,4811.699786,N,01500.486334,E,1,12,1.1,238.2,M,44.4,M,,*72
$GPGSV,3,1,10,05,36,224,24,07,09,075,15,13,82,302,21,14,62,087,17,1*6F
$GPGSV,3,2,10,15,49,298,23,17,13,123,18,24,10,265,12,30,42,071,21,1*67
$GPGSV,3,3,10,20,10,195,,23,10,326,,1*6C
$GLGSV,1,1,04,66,57,312,26,76,54,236,34,75,61,033,20,65,54,167,23,1*7E
$GAGSV,1,1,04,19,78,272,15,27,50,059,20,04,21,306,,21,63,182,,7*72
$GBGSV,2,1,06,10,36,061,12,20,35,306,17,23,84,064,18,25,31,060,18,1*78
$GBGSV,2,2,06,05,18,127,,07,26,050,,1*7E
$GNGSA,A,3,05,13,14,15,17,24,30,,,,,,1.3,1.1,0.8,1*3E
$GNGSA,A,3,66,75,76,,,,,,,,,,1.3,1.1,0.8,2*3B
$GNGSA,A,3,19,27,,,,,,,,,,,1.3,1.1,0.8,3*34
$GNGSA,A,3,10,,,,,,,,,,,,1.3,1.1,0.8,4*3F
$GNVTG,278.5,T,277.1,M,37.1,N,68.8,K,A*35
$GNRMC,155308.00,A,4811.700724,N,01500.471275,E,37.1,278.5,181022,1.4,E,A,V*67
$GNGGA,155308.00,4811.700724,N,01500.471275,E,1,12,1.1,238.4,M,44.4,M,,*7E
$GPGSV,3,1,10,05,36,224,22,07,09,075,15,13,82,302,21,14,62,087,20,1*6D
$GPGSV,3,2,10,15,49,298,24,17,13,123,18,24,10,265,12,30,42,071,20,1*61
$GPGSV,3,3,10,20,10,195,,23,10,326,,1*6C
$GLGSV,1,1,04,66,57,312,25,76,54,236,34,75,61,033,21,65,54,167,20,1*7F
$GAGSV,1,1,04,19,78,272,15,27,50,059,14,04,21,306,,21,63,182,,7*75
$GBGSV,2,1,06,10,36,061,12,20,35,306,19,23,84,064,17,25,31,060,18,1*79
$GBGSV,2,2,06,05,18,127,,07,26,050,,1*7E
$GNGSA,A,3,05,13,14,15,17,24,30,,,,,,1.3,1.1,0.8,1*3E
$GNGSA,A,3,66,75,76,,,,,,,,,,1.3,1.1,0.8,2*3B
$GNGSA,A,3,19,27,,,,,,,,,,,1.3,1.1,0.8,3*34
$GNGSA,A,3,10,,,,,,,,,,,,1.3,1.1,0.8,4*3F
$GNVTG,279.7,T,278.3,M,37.7,N,69.7,K,A*33
$GNRMC,155309.00,A,4811.702720,N,01500.456329,E,37.7,279.7,181022,1.4,E,A,V*68
$GNGGA,155309.00,4811.702720,N,01500.456329,E,1,12,1.1,238.7,M,44.4,M,,*77
$GPGSV,3,1,10,05,36,224,18,07,09,075,15,13,82,302,23,14,62,087,20,1*66
$GPGSV,3,2,10,15,49,298,21,17,13,123,18,24,10,265,16,30,42,071,19,1*6A
$GPGSV,3,3,10,20,10,195,,23,10,326,,1*6C
$GLGSV,1,1,04,66,57,312,23,76,54,236,33,75,61,033,24,65,54,167,20,1*7B
$GAGSV,1,1,04,19,78,272,15,27,50,059,18,04,21,306,,21,63,182,,7*79
$GBGSV,2,1,06,10,36,061,12,20,35,306,19,23,84,064,16,25,31,060,18,1*78
$GBGSV,2,2,06,05,18,127,,07,26,050,,1*7E
$GNGSA,A,3,05,13,14,15,17,24,30,,,,,,1.3,1.1,0.8,1*3E
$GNGSA,A,3,66,75,76,,,,,,,,,,1.3,1.1,0.8,2*3B
$GNGSA,A,3,19,27,,,,,,,,,,,1.3,1.1,0.8,3*34
$GNGSA,A,3,10,,,,,,,,,,,,1.3,1.1,0.8,4*3F
$GNVTG,281.2,T,279.8,M,37.7,N,69.7,K,A*3B
$GNRMC,155310.00,A,4811.705485,N,01500.441001,E,37.7,281.2,181022,1.4,E,A,V*66
$GNGGA,155310.00,4811.705485,N,01500.441001,E,1,12,1.1,236.8,M,44.4,M,,*7A
$GPGSV,3,1,10,05,36,224,18,07,09,075,15,13,82,302,21,14,62,087,22,1*66
$GPGSV,3,2,10,15,49,298,22,17,13,123,14,24,10,265,21,30,42,071,19,1*61
$GPGSV,3,3,10,20,10,195,,23,10,326,,1*6C
$GLGSV,1,1,04,66,57,312,25,76,54,236,36,75,61,033,27,65,54,167,21,1*7A
$GAGSV,1,1,04,19,78,272,15,27,50,059,20,04,21,306,,21,63,182,,7*72
$GBGSV,2,1,06,10,36,061,12,20,35,306,18,23,84,064,16,25,31,060,18,1*79
$GBGSV,2,2,06,05,18,127,,07,26,050,,1*7E
$GNGSA,A,3,05,13,14,15,17,24,30,,,,,,1.3,1.1,0.8,1*3E
$GNGSA,A,3,66,75,76,,,,,,,,,,1.3,1.1,0.8,2*3B
$GNGSA,A,3,19,27,,,,,,,,,,,1.3,1.1,0.8,3*34
$GNGSA,A,3,10,,,,,,,,,,,,1.3,1.1,0.8,4*3F
$GNVTG,282.5,T,281.1,M,38.3,N,70.9,K,A*3C
$GNRMC,155311.00,A,4811.707628,N,01500.425680,E,38.3,282.5,181022,1.4,E,A,V*62
$GNGGA,155311.00,4811.707628,N,01500.425680,E,1,12,1.1,236.9,M,44.4,M,,*70
$GPGSV,3,1,10,05,36,224,22,13,82,302,21,14,62,087,24,15,49,298,20,1*69
$GPGSV,3,2,10,17,13,123,22,24,10,265,23,30,42,071,19,07,09,075,,1*60
$GPGSV,3,3,10,20,10,195,,23,10,326,,1*6C
$GLGSV,1,1,04,66,57,312,26,76,54,236,36,75,61,033,28,65,54,167,18,1*7C
$GAGSV,1,1,04,19,78,272,15,27,50,059,25,04,21,306,,21,63,182,,7*77
$GBGSV,2,1,06,10,36,061,12,20,35,306,18,23,84,064,16,25,31,060,18,1*79
$GBGSV,2,2,06,05,18,127,,07,26,050,,1*7E
$GNGSA,A,3,05,13,14,15,17,24,30,,,,,,1.4,1.1,0.8,1*39
$GNGSA,A,3,66,75,76,,,,,,,,,,1.4,1.1,0.8,2*3C
$GNGSA,A,3,19,27,,,,,,,,,,,1.4,1.1,0.8,3*33
$GNVTG,283.6,T,282.2,M,37.9,N,70.2,K,A*30
$GNRMC,155312.00,A,4811.710437,N,01500.410605,E,37.9,283.6,181022,1.4,E,A,V*67
$GNGGA,155312.00,4811.710437,N,01500.410605,E,1,12,1.1,236.0,M,44.4,M,,*7B
$GPGSV,3,1,10,05,36,224,22,13,82,302,22,14,62,087,24,15,49,298,21,1*6B
$GPGSV,3,2,10,17,13,123,21,24,10,265,25,30,42,071,19,07,09,075,,1*65
$GPGSV,3,3,10,20,10,195,,23,10,326,,1*6C
$GLGSV,1,1,04,66,57,312,28,76,54,236,35,75,61,033,28,65,54,167,18,1*71
$GAGSV,1,1,04,19,78,272,15,27,50,059,24,04,21,306,,21,63,182,,7*76
$GBGSV,2,1,06,10,36,061,12,20,35,306,17,23,84,064,16,25,31,060,18,1*76
$GBGSV,2,2,06,05,18,127,,07,26,050,,1*7E
$GNGSA,A,3,05,13,14,15,17,24,30,,,,,,1.4,1.1,0.8,1*39
$GNGSA,A,3,66,75,76,,,,,,,,,,1.4,1.1,0.8,2*3C
$GNGSA,A,3,19,27,,,,,,,,,,,1.4,1.1,0.8,3*33
$GNVTG,284.7,T,283.3,M,37.7,N,69.9,K,A*3B
$GNRMC,155313.00,A,4811.713147,N,01500.394324,E,37.7,284.7,181022,1.4,E,A,V*62
$GNGGA,155313.00,4811.713147,N,01500.394324,E,1,12,1.1,232.4,M,44.4,M,,*76
$GPGSV,3,1,10,05,36,224,24,13,82,302,23,14,62,087,25,15,49,298,19,1*66
$GPGSV,3,2,10,17,13,123,23,24,10,265,26,30,42,071,19,07,09,075,,1*64
$GPGSV,3,3,10,20,10,195,,23,10,326,,1*6C
$GLGSV,1,1,04,66,57,312,28,76,54,236,34,75,61,033,29,65,54,167,16,1*7F
$GAGSV,1,1,04,19,78,272,15,27,50,059,26,04,21,306,,21,63,182,,7*74
$GBGSV,2,1,06,10,36,061,12,20,35,306,23,23,84,064,16,25,31,060,18,1*71
$GBGSV,2,2,06,05,18,127,,07,26,050,,1*7E
$GNGSA,A,3,05,13,14,15,17,24,30,,,,,,1.4,1.1,0.8,1*39
$GNGSA,A,3,66,75,76,,,,,,,,,,1.4,1.1,0.8,2*3C
$GNGSA,A,3,27,,,,,,,,,,,,1.4,1.1,0.8,3*3B
$GNVTG,285.9,T,284.5,M,38.5,N,71.3,K,A*3B
$GNRMC,155314.00,A,4811.715604,N,01500.378827,E,38.5,285.9,181022,1.4,E,A,V*6B
$GNGGA,155314.00,4811.715604,N,01500.378827,E,1,11,1.1,234.3,M,44.4,M,,*7F
$GPGSV,3,1,10,05,36,224,24,13,82,302,22,14,62,087,25,15,49,298,18,1*66
$GPGSV,3,2,10,17,13,123,21,24,10,265,24,30,42,071,19,07,09,075,,1*64
$GPGSV,3,3,10,20,10,195,,23,10,326,,1*6C
$GLGSV,1,1,04,66,57,312,27,76,54,236,30,75,61,033,27,65,54,167,16,1*7A
$GAGSV,1,1,04,19,78,272,15,27,50,059,23,04,21,306,,21,63,182,,7*71
$GBGSV,2,1,06,10,36,061,12,20,35,306,25,23,84,064,13,25,31,060,18,1*72
$GBGSV,2,2,06,05,18,127,,07,26,050,,1*7E
$GNGSA,A,3,05,13,14,15,17,24,30,,,,,,1.4,1.1,0.8,1*39
$GNGSA,A,3,66,75,76,,,,,,,,,,1.4,1.1,0.8,2*3C
$GNGSA,A,3,27,,,,,,,,,,,,1.4,1.1,0.8,3*3B
$GNVTG,286.8,T,285.4,M,38.4,N,71.1,K,A*3A
$GNRMC,155315.00,A,4811.719027,N,01500.363843,E,38.4,286.8,181022,1.4,E,A,V*6A
$GNGGA,155315.00,4811.719027,N,01500.363843,E,1,11,1.1,236.5,M,44.4,M,,*79
$GPGSV,3,1,10,05,36,224,25,13,82,302,24,14,62,087,26,15,49,298,21,1*68
$GPGSV,3,2,10,17,13,123,20,24,10,265,24,30,42,071,14,07,09,075,,1*68
$GPGSV,3,3,10,20,10,195,,23,10,326,,1*6C
$GLGSV,1,1,04,66,57,312,28,76,54,236,29,75,61,033,25,65,54,167,16,1*7F
$GAGSV,1,1,04,19,78,272,15,27,50,059,17,04,21,306,,21,63,182,,7*76
$GBGSV,2,1,06,10,36,061,12,23,84,064,17,25,31,060,18,05,18,127,,1*78
$GBGSV,2,2,06,07,26,050,,20,35,306,,1*77
$GNGSA,A,3,05,13,14,15,17,24,30,,,,,,1.4,1.1,0.8,1*39
$GNGSA,A,3,66,75,76,,,,,,,,,,1.4,1.1,0.8,2*3C
$GNGSA,A,3,27,,,,,,,,,,,,1.4,1.1,0.8,3*3B
$GNVTG,287.5,T,286.1,M,37.1,N,68.8,K,A*3B
$GNRMC,155316.00,A,4811.722241,N,01500.349273,E,37.1,287.5,181022,1.4,E,A,V*64
$GNGGA,155316.00,4811.722241,N,01500.349273,E,1,11,1.1,237.9,M,44.4,M,,*7C
$GPGSV,3,1,10,05,36,224,23,13,82,302,24,14,62,087,27,15,49,298,20,1*6E
$GPGSV,3,2,10,17,13,123,18,24,10,265,24,30,42,071,14,07,09,075,,1*63
$GPGSV,3,3,10,20,10,195,,23,10,326,,1*6C
$GLGSV,1,1,04,66,57,312,29,76,54,236,30,75,61,033,26,65,54,167,16,1*75
$GAGSV,1,1,04,19,78,272,15,27,50,059,17,04,21,306,,21,63,182,,7*76
$GBGSV,2,1,06,10,36,061,12,23,84,064,17,25,31,060,18,05,18,127,,1*78
$GBGSV,2,2,06,07,26,050,,20,35,306,,1*77
$GNGSA,A,3,05,13,14,15,17,24,30,,,,,,1.4,1.1,0.8,1*39
$GNGSA,A,3,66,75,76,,,,,,,,,,1.4,1.1,0.8,2*3C
$GNGSA,A,3,27,,,,,,,,,,,,1.4,1.1,0.8,3*3B
$GNVTG,288.3,T,286.9,M,37.2,N,68.9,K,A*38
$GNRMC,155317.00,A,4811.725141,N,01500.334844,E,37.2,288.3,181022,1.4,E,A,V*6F
$GNGGA,155317.00,4811.725141,N,01500.334844,E,1,11,1.1,237.5,M,44.4,M,,*71
$GPGSV,3,1,10,05,36,224,21,13,82,302,25,14,62,087,27,15,49,298,17,1*69
$GPGSV,3,2,10,17,13,123,18,24,10,265,23,30,42,071,14,07,09,075,,1*64
$GPGSV,3,3,10,20,10,195,,23,10,326,,1*6C
$GLGSV,1,1,04,66,57,312,30,76,54,236,31,75,61,033,29,65,54,167,12,1*77
$GAGSV,1,1,04,04,21,306,17,19,78,272,15,27,50,059,16,21,63,182,,7*71
$GBGSV,2,1,06,10,36,061,12,23,84,064,17,25,31,060,18,05,18,127,,1*78
$GBGSV,2,2,06,07,26,050,,20,35,306,,1*77
$GNGSA,A,3,05,13,14,15,17,24,30,,,,,,1.3,1.0,0.8,1*3F
$GNGSA,A,3,66,75,76,,,,,,,,,,1.3,1.0,0.8,2*3A
$GNGSA,A,3,04,27,,,,,,,,,,,1.3,1.0,0.8,3*39
$GNVTG,289.0,T,287.6,M,36.8,N,68.2,K,A*34
$GNRMC,155318.00,A,4811.728716,N,01500.320340,E,36.8,289.0,181022,1.4,E,A,V*6A
$GNGGA,155318.00,4811.728716,N,01500.320340,E,1,12,1.0,236.4,M,44.4,M,,*7F
$GPGSV,3,1,10,05,36,224,20,13,82,302,24,14,62,087,26,15,49,298,18,1*67
$GPGSV,3,2,10,17,13,123,18,24,10,265,25,30,42,071,14,07,09,075,,1*62
$GPGSV,3,3,10,20,10,195,,23,10,326,,1*6C
$GLGSV,1,1,04,66,57,312,29,76,54,236,31,75,61,033,28,65,54,167,19,1*75
$GAGSV,1,1,04,04,21,306,20,19,78,272,11,27,50,059,18,21,63,182,,7*7F
$GBGSV,2,1,06,10,36,061,12,23,84,064,17,25,31,060,18,05,18,127,,1*78
$GBGSV,2,2,06,07,26,050,,20,35,306,,1*77
$GNGSA,A,3,05,13,14,15,17,24,30,,,,,,1.3,1.0,0.8,1*3F
$GNGSA,A,3,66,75,76,,,,,,,,,,1.3,1.0,0.8,2*3A
$GNGSA,A,3,04,19,27,,,,,,,,,,1.3,1.0,0.8,3*31
$GNVTG,289.2,T,287.8,M,36.3,N,67.2,K,A*3C
$GNRMC,155319.00,A,4811.732225,N,01500.306173,E,36.3,289.2,181022,1.4,E,A,V*6A
$GNGGA,155319.00,4811.732225,N,01500.306173,E,1,12,1.0,236.8,M,44.4,M,,*7A
$GPGSV,3,1,10,05,36,224,20,13,82,302,25,14,62,087,26,15,49,298,21,1*6C
$GPGSV,3,2,10,17,13,123,14,24,10,265,25,30,42,071,14,07,09,075,,1*6E
$GPGSV,3,3,10,20,10,195,,23,10,326,,1*6C
$GLGSV,1,1,04,66,57,312,30,76,54,236,31,75,61,033,28,65,54,167,16,1*72
$GAGSV,1,1,04,04,21,306,21,19,78,272,11,27,50,059,22,21,63,182,,7*77
$GBGSV,2,1,06,10,36,061,12,23,84,064,21,25,31,060,18,05,18,127,,1*7D
$GBGSV,2,2,06,07,26,050,,20,35,306,,1*77
$GNGSA,A,3,05,13,14,15,17,24,30,,,,,,1.3,1.0,0.8,1*3F
$GNGSA,A,3,66,75,76,,,,,,,,,,1.3,1.0,0.8,2*3A
$GNGSA,A,3,04,19,27,,,,,,,,,,1.3,1.0,0.8,3*31
$GNVTG,289.4,T,288.0,M,36.4,N,67.4,K,A*3C
$GNRMC,155320.00,A,4811.735366,N,01500.291703,E,36.4,289.4,181022,1.4,E,A,V*6E
$GNGGA,155320.00,4811.735366,N,01500.291703,E,1,12,1.0,236.1,M,44.4,M,,*76
$GPGSV,3,1,10,05,36,224,21,13,82,302,24,14,62,087,25,15,49,298,20,1*6E
$GPGSV,3,2,10,17,13,123,14,24,10,265,21,30,42,071,14,07,09,075,,1*6A
$GPGSV,3,3,10,20,10,195,,23,10,326,,1*6C
$GLGSV,1,1,04,66,57,312,29,76,54,236,29,75,61,033,27,65,54,167,16,1*7C
$GAGSV,1,1,04,04,21,306,21,19,78,272,11,27,50,059,21,21,63,182,,7*74
$GBGSV,2,1,06,10,36,061,12,23,84,064,22,25,31,060,18,05,18,127,,1*7E
$GBGSV,2,2,06,07,26,050,,20,35,306,,1*77
$GNGSA,A,3,05,13,14,15,17,24,30,,,,,,1.3,1.0,0.8,1*3F
$GNGSA,A,3,66,75,76,,,,,,,,,,1.3,1.0,0.8,2*3A
$GNGSA,A,3,04,19,27,,,,,,,,,,1.3,1.0,0.8,3*31
$GNVTG,289.3,T,287.9,M,36.3,N,67.2,K,A*3C
$GNRMC,155321.00,A,4811.738229,N,01500.277381,E,36.3,289.3,181022,1.4,E,A,V*6E
$GNGGA,155321.00,4811.738229,N,01500.277381,E,1,12,1.0,235.3,M,44.4,M,,*77
$GPGSV,3,1,10,05,36,224,20,13,82,302,24,14,62,087,24,15,49,298,19,1*64
$GPGSV,3,2,10,17,13,123,14,24,10,265,22,30,42,071,14,07,09,075,,1*69
$GPGSV,3,3,10,20,10,195,,23,10,326,,1*6C
$GLGSV,1,1,04,66,57,312,29,76,54,236,28,75,61,033,26,65,54,167,16,1*7C
$GAGSV,1,1,04,04,21,306,17,19,78,272,11,27,50,059,21,21,63,182,,7*71
$GBGSV,2,1,06,10,36,061,12,23,84,064,21,25,31,060,18,05,18,127,,1*7D
$GBGSV,2,2,06,07,26,050,,20,35,306,,1*77
$GNGSA,A,3,05,13,14,15,17,24,,,,,,,1.3,1.1,0.8,1*3D
$GNGSA,A,3,66,75,76,,,,,,,,,,1.3,1.1,0.8,2*3B
$GNGSA,A,3,04,19,27,,,,,,,,,,1.3,1.1,0.8,3*30
$GNVTG,289.2,T,287.8,M,35.7,N,66.2,K,A*3A
$GNRMC,155322.00,A,4811.741604,N,01500.263189,E,35.7,289.2,181022,1.4,E,A,V*61
$GNGGA,155322.00,4811.741604,N,01500.263189,E,1,12,1.1,234.8,M,44.4,M,,*75
$GPGSV,3,1,10,05,36,224,21,13,82,302,24,14,62,087,23,15,49,298,21,1*69
$GPGSV,3,2,10,17,13,123,14,24,10,265,19,30,42,071,13,07,09,075,,1*66
$GPGSV,3,3,10,20,10,195,,23,10,326,,1*6C
$GLGSV,1,1,04,66,57,312,29,76,54,236,30,75,61,033,28,65,54,167,16,1*7B
$GAGSV,1,1,04,04,21,306,18,19,78,272,11,27,50,059,23,21,63,182,,7*7C
$GBGSV,2,1,06,10,36,061,12,23,84,064,21,25,31,060,18,05,18,127,,1*7D
$GBGSV,2,2,06,07,26,050,,20,35,306,,1*77
$GNGSA,A,3,05,13,14,15,17,24,30,,,,,,1.3,1.0,0.8,1*3F
$GNGSA,A,3,66,75,76,,,,,,,,,,1.3,1.0,0.8,2*3A
$GNGSA,A,3,04,19,27,,,,,,,,,,1.3,1.0,0.8,3*31
$GNVTG,289.3,T,287.9,M,36.0,N,66.7,K,A*3B
$GNRMC,155323.00,A,4811.745072,N,01500.248884,E,36.0,289.3,181022,1.4,E,A,V*6B
$GNGGA,155323.00,4811.745072,N,01500.248884,E,1,12,1.0,234.5,M,44.4,M,,*76
$GPGSV,3,1,10,05,36,224,19,13,82,302,24,14,62,087,23,15,49,298,21,1*62
$GPGSV,3,2,10,17,13,123,13,24,10,265,23,30,42,071,13,07,09,075,,1*68
$GPGSV,3,3,10,20,10,195,,23,10,326,,1*6C
$GLGSV,1,1,04,66,57,312,29,76,54,236,30,75,61,033,27,65,54,167,14,1*76
$GAGSV,1,1,04,04,21,306,19,19,78,272,11,27,50,059,23,21,63,182,,7*7D
$GBGSV,2,1,06,10,36,061,12,23,84,064,21,25,31,060,18,05,18,127,,1*7D
$GBGSV,2,2,06,07,26,050,,20,35,306,,1*77
$GNGSA,A,3,05,13,14,15,17,24,30,,,,,,1.3,1.0,0.8,1*3F
$GNGSA,A,3,66,75,76,,,,,,,,,,1.3,1.0,0.8,2*3A
$GNGSA,A,3,04,19,27,,,,,,,,,,1.3,1.0,0.8,3*31
$GNVTG,289.2,T,287.8,M,36.0,N,66.7,K,A*3B
$GNRMC,155324.00,A,4811.748112,N,01500.234794,E,36.0,289.2,181022,1.4,E,A,V*62
$GNGGA,155324.00,4811.748112,N,01500.234794,E,1,12,1.0,235.2,M,44.4,M,,*78
$GPGSV,3,1,10,05,36,224,23,13,82,302,25,14,62,087,23,15,49,298,23,1*68
$GPGSV,3,2,10,17,13,123,13,24,10,265,22,30,42,071,17,07,09,075,,1*6D
$GPGSV,3,3,10,20,10,195,,23,10,326,,1*6C
$GLGSV,1,1,04,66,57,312,30,76,54,236,31,75,61,033,27,65,54,167,17,1*7C
$GAGSV,1,1,04,04,21,306,19,19,78,272,11,27,50,059,25,21,63,182,,7*7B
$GBGSV,2,1,06,10,36,061,12,23,84,064,23,25,31,060,18,05,18,127,,1*7F
$GBGSV,2,2,06,07,26,050,,20,35,306,,1*77
$GNGSA,A,3,05,13,14,15,17,24,30,,,,,,1.3,1.0,0.8,1*3F
$GNGSA,A,3,66,75,76,,,,,,,,,,1.3,1.0,0.8,2*3A
$GNGSA,A,3,04,27,,,,,,,,,,,1.3,1.0,0.8,3*39
$GNVTG,289.2,T,287.8,M,36.0,N,66.7,K,A*3B
$GNRMC,155325.00,A,4811.751312,N,01500.221396,E,36.0,289.2,181022,1.4,E,A,V*6B
$GNGGA,155325.00,4811.751312,N,01500.221396,E,1,12,1.0,235.6,M,44.4,M,,*75
$GPGSV,3,1,10,05,36,224,23,13,82,302,24,14,62,087,23,15,49,298,22,1*68
$GPGSV,3,2,10,17,13,123,13,24,10,265,20,30,42,071,17,07,09,075,,1*6F
$GPGSV,3,3,10,20,10,195,,23,10,326,,1*6C
$GLGSV,1,1,04,66,57,312,30,76,54,236,31,75,61,033,26,65,54,167,17,1*7D
$GAGSV,1,1,04,04,21,306,19,19,78,272,11,27,50,059,23,21,63,182,,7*7D
$GBGSV,2,1,06,23,84,064,24,25,31,060,18,05,18,127,,07,26,050,,1*7E
$GBGSV,2,2,06,10,36,061,,20,35,306,,1*72
$GNGSA,A,3,05,13,14,15,17,24,30,,,,,,1.3,1.0,0.8,1*3F
$GNGSA,A,3,66,75,76,,,,,,,,,,1.3,1.0,0.8,2*3A
$GNGSA,A,3,04,27,,,,,,,,,,,1.3,1.0,0.8,3*39
$GNVTG,289.2,T,287.8,M,36.4,N,67.4,K,A*3D
$GNRMC,155326.00,A,4811.754682,N,01500.206631,E,36.4,289.2,181022,1.4,E,A,V*68
$GNGGA,155326.00,4811.754682,N,01500.206631,E,1,12,1.0,235.0,M,44.4,M,,*74
$GPGSV,3,1,10,05,36,224,23,13,82,302,21,14,62,087,20,15,49,298,21,1*6D
$GPGSV,3,2,10,17,13,123,14,24,10,265,23,30,42,071,17,07,09,075,,1*6B
$GPGSV,3,3,10,20,10,195,,23,10,326,,1*6C
$GLGSV,1,1,04,66,57,312,29,76,54,236,30,75,61,033,24,65,54,167,16,1*77
$GAGSV,1,1,04,04,21,306,19,19,78,272,12,27,50,059,23,21,63,182,,7*7E
$GBGSV,2,1,06,23,84,064,24,25,31,060,18,05,18,127,,07,26,050,,1*7E
$GBGSV,2,2,06,10,36,061,,20,35,306,,1*72
$GNGSA,A,3,05,13,14,15,17,24,30,,,,,,1.3,1.0,0.8,1*3F
$GNGSA,A,3,66,75,76,,,,,,,,,,1.3,1.0,0.8,2*3A
$GNGSA,A,3,04,19,27,,,,,,,,,,1.3,1.0,0.8,3*31
$GNVTG,289.0,T,287.6,M,36.7,N,67.9,K,A*3F
$GNRMC,155327.00,A,4811.757691,N,01500.191779,E,36.7,289.0,181022,1.4,E,A,V*69
$GNGGA,155327.00,4811.757691,N,01500.191779,E,1,12,1.0,235.9,M,44.4,M,,*7D
$GPGSV,3,1,10,05,36,224,24,13,82,302,22,14,62,087,22,15,49,298,22,1*68
$GPGSV,3,2,10,17,13,123,14,24,10,265,22,30,42,071,17,07,09,075,,1*6A
$GPGSV,3,3,10,20,10,195,,23,10,326,,1*6C
$GLGSV,1,1,04,66,57,312,30,76,54,236,32,75,61,033,26,65,54,167,18,1*71
$GAGSV,1,1,04,04,21,306,19,19,78,272,16,27,50,059,23,21,63,182,,7*7A
$GBGSV,2,1,06,25,31,060,18,05,18,127,,07,26,050,,10,36,061,,1*74
$GBGSV,2,2,06,20,35,306,,23,84,064,,1*7E
$GNGSA,A,3,05,13,14,15,17,24,30,,,,,,1.3,1.0,0.8,1*3F
$GNGSA,A,3,66,75,76,,,,,,,,,,1.3,1.0,0.8,2*3A
$GNGSA,A,3,04,19,27,,,,,,,,,,1.3,1.0,0.8,3*31
$GNVTG,288.3,T,286.9,M,36.7,N,68.0,K,A*35
$GNRMC,155328.00,A,4811.760689,N,01500.177344,E,36.7,288.3,181022,1.4,E,A,V*6B
$GNGGA,155328.00,4811.760689,N,01500.177344,E,1,12,1.0,236.4,M,44.4,M,,*73
$GPGSV,3,1,10,05,36,224,22,13,82,302,20,14,62,087,22,15,49,298,23,1*6D
$GPGSV,3,2,10,17,13,123,18,24,10,265,23,30,42,071,17,07,09,075,,1*67
$GPGSV,3,3,10,20,10,195,,23,10,326,,1*6C
$GLGSV,1,1,04,66,57,312,31,76,54,236,33,75,61,033,29,65,54,167,24,1*71
$GAGSV,1,1,04,04,21,306,19,19,78,272,18,27,50,059,22,21,63,182,,7*75
$GBGSV,2,1,06,25,31,060,18,05,18,127,,07,26,050,,10,36,061,,1*74
$GBGSV,2,2,06,20,35,306,,23,84,064,,1*7E
$GNGSA,A,3,05,13,14,15,17,24,30,,,,,,1.3,1.0,0.8,1*3F
$GNGSA,A,3,66,75,76,,,,,,,,,,1.3,1.0,0.8,2*3A
$GNGSA,A,3,04,19,27,,,,,,,,,,1.3,1.0,0.8,3*31
$GNVTG,286.8,T,285.4,M,36.8,N,68.1,K,A*30
$GNRMC,155329.00,A,4811.763403,N,01500.163002,E,36.8,286.8,181022,1.4,E,A,V*67
$GNGGA,155329.00,4811.763403,N,01500.163002,E,1,12,1.0,234.3,M,44.4,M,,*70
$GPGSV,3,1,10,05,36,224,21,13,82,302,20,14,62,087,24,15,49,298,22,1*69
$GPGSV,3,2,10,17,13,123,22,24,10,265,20,30,42,071,17,07,09,075,,1*6D
$GPGSV,3,3,10,20,10,195,,23,10,326,,1*6C
$GLGSV,1,1,04,66,57,312,29,76,54,236,35,75,61,033,30,65,54,167,24,1*76
$GAGSV,1,1,04,04,21,306,19,19,78,272,17,27,50,059,22,21,63,182,,7*7A
$GBGSV,2,1,06,10,36,061,18,25,31,060,25,05,18,127,,07,26,050,,1*73
$GBGSV,2,2,06,20,35,306,,23,84,064,,1*7E
$GNGSA,A,3,05,13,14,15,17,24,30,,,,,,1.2,1.0,0.8,1*3E
$GNGSA,A,3,66,75,76,,,,,,,,,,1.2,1.0,0.8,2*3B
$GNGSA,A,3,04,19,27,,,,,,,,,,1.2,1.0,0.8,3*30
$GNGSA,A,3,10,,,,,,,,,,,,1.2,1.0,0.8,4*3F
$GNVTG,284.8,T,283.4,M,37.5,N,69.4,K,A*3C
$GNRMC,155330.00,A,4811.766183,N,01500.147593,E,37.5,284.8,181022,1.4,E,A,V*62
$GNGGA,155330.00,4811.766183,N,01500.147593,E,1,12,1.0,234.7,M,44.4,M,,*7F
$GPGSV,3,1,10,05,36,224,19,13,82,302,21,14,62,087,26,15,49,298,23,1*60
$GPGSV,3,2,10,17,13,123,25,24,10,265,23,30,42,071,17,07,09,075,,1*69
$GPGSV,3,3,10,20,10,195,,23,10,326,,1*6C
$GLGSV,1,1,04,66,57,312,28,76,54,236,34,75,61,033,29,65,54,167,22,1*78
$GAGSV,1,1,04,04,21,306,19,19,78,272,18,27,50,059,19,21,63,182,,7*7D
$GBGSV,2,1,06,10,36,061,20,25,31,060,22,05,18,127,,07,26,050,,1*7F
$GBGSV,2,2,06,20,35,306,,23,84,064,,1*7E
$GNGSA,A,3,05,13,14,15,17,24,30,,,,,,1.2,1.0,0.8,1*3E
$GNGSA,A,3,66,75,76,,,,,,,,,,1.2,1.0,0.8,2*3B
$GNGSA,A,3,04,19,27,,,,,,,,,,1.2,1.0,0.8,3*30
$GNGSA,A,3,10,,,,,,,,,,,,1.2,1.0,0.8,4*3F
$GNVTG,283.5,T,282.1,M,38.1,N,70.6,K,A*33
$GNRMC,155331.00,A,4811.768944,N,01500.131858,E,38.1,283.5,181022,1.4,E,A,V*64
$GNGGA,155331.00,4811.768944,N,01500.131858,E,1,12,1.0,234.7,M,44.4,M,,*78
$GPGSV,3,1,10,05,36,224,17,13,82,302,18,14,62,087,24,15,49,298,23,1*66
$GPGSV,3,2,10,17,13,123,23,24,10,265,21,30,42,071,17,07,09,075,,1*6D
$GPGSV,3,3,10,20,10,195,,23,10,326,,1*6C
$GLGSV,1,1,04,66,57,312,26,76,54,236,32,75,61,033,27,65,54,167,21,1*7D
$GAGSV,1,1,04,04,21,306,19,19,78,272,17,27,50,059,18,21,63,182,,7*73
$GBGSV,2,1,06,10,36,061,20,25,31,060,22,05,18,127,,07,26,050,,1*7F
$GBGSV,2,2,06,20,35,306,,23,84,064,,1*7E
$GNGSA,A,3,05,13,14,15,17,24,30,,,,,,1.2,1.0,0.8,1*3E
$GNGSA,A,3,66,75,76,,,,,,,,,,1.2,1.0,0.8,2*3B
$GNGSA,A,3,04,19,27,,,,,,,,,,1.2,1.0,0.8,3*30
$GNGSA,A,3,10,,,,,,,,,,,,1.2,1.0,0.8,4*3F
$GNVTG,282.8,T,281.4,M,38.6,N,71.6,K,A*3F
$GNRMC,155332.00,A,4811.771655,N,01500.116307,E,38.6,282.8,181022,1.4,E,A,V*6F
$GNGGA,155332.00,4811.771655,N,01500.116307,E,1,12,1.0,235.5,M,44.4,M,,*7B
$GPGSV,3,1,10,05,36,224,16,13,82,302,17,14,62,087,24,15,49,298,24,1*6F
$GPGSV,3,2,10,17,13,123,22,24,10,265,19,30,42,071,17,07,09,075,,1*67
$GPGSV,3,3,10,20,10,195,,23,10,326,,1*6C
$GLGSV,1,1,04,66,57,312,27,76,54,236,32,75,61,033,27,65,54,167,24,1*79
$GAGSV,1,1,04,04,21,306,18,19,78,272,17,27,50,059,18,21,63,182,,7*72
$GBGSV,2,1,06,10,36,061,20,25,31,060,22,05,18,127,,07,26,050,,1*7F
$GBGSV,2,2,06,20,35,306,,23,84,064,,1*7E
$GNGSA,A,3,05,13,14,15,17,24,,,,,,,1.3,1.0,0.8,1*3C
$GNGSA,A,3,66,75,76,,,,,,,,,,1.3,1.0,0.8,2*3A
$GNGSA,A,3,04,19,27,,,,,,,,,,1.3,1.0,0.8,3*31
$GNGSA,A,3,10,,,,,,,,,,,,1.3,1.0,0.8,4*3E
$GNVTG,281.9,T,280.5,M,39.8,N,73.8,K,A*3E
$GNRMC,155333.00,A,4811.773859,N,01500.100477,E,39.8,281.9,181022,1.4,E,A,V*64
$GNGGA,155333.00,4811.773859,N,01500.100477,E,1,12,1.0,234.5,M,44.4,M,,*7C
$GPGSV,3,1,10,05,36,224,20,13,82,302,19,14,62,087,23,15,49,298,24,1*63
$GPGSV,3,2,10,17,13,123,19,24,10,265,18,30,42,071,17,07,09,075,,1*6E
$GPGSV,3,3,10,20,10,195,,23,10,326,,1*6C
$GLGSV,1,1,04,66,57,312,23,76,54,236,31,75,61,033,25,65,54,167,22,1*7A
$GAGSV,1,1,04,04,21,306,18,19,78,272,17,27,50,059,18,21,63,182,,7*72
$GBGSV,2,1,06,10,36,061,20,25,31,060,22,05,18,127,,07,26,050,,1*7F
$GBGSV,2,2,06,20,35,306,,23,84,064,,1*7E
$GNGSA,A,3,05,13,14,15,17,24,,,,,,,1.3,1.0,0.8,1*3C
$GNGSA,A,3,66,75,76,,,,,,,,,,1.3,1.0,0.8,2*3A
$GNGSA,A,3,04,19,27,,,,,,,,,,1.3,1.0,0.8,3*31
$GNGSA,A,3,10,,,,,,,,,,,,1.3,1.0,0.8,4*3E
$GNVTG,280.8,T,279.4,M,40.4,N,74.8,K,A*3C
$GNRMC,155334.00,A,4811.775842,N,01500.083426,E,40.4,280.8,181022,1.4,E,A,V*63
$GNGGA,155334.00,4811.775842,N,01500.083426,E,1,12,1.0,233.4,M,44.4,M,,*7F
$GPGSV,3,1,10,05,36,224,22,13,82,302,18,14,62,087,21,15,49,298,22,1*64
$GPGSV,3,2,10,17,13,123,19,24,10,265,19,30,42,071,14,07,09,075,,1*6C
$GPGSV,3,3,10,20,10,195,,23,10,326,,1*6C
$GLGSV,1,1,04,66,57,312,23,76,54,236,29,75,61,033,21,65,54,167,22,1*77
$GAGSV,1,1,04,04,21,306,18,19,78,272,16,27,50,059,14,21,63,182,,7*7F
$GBGSV,2,1,06,10,36,061,20,25,31,060,17,05,18,127,,07,26,050,,1*79
$GBGSV,2,2,06,20,35,306,,23,84,064,,1*7E
$GNGSA,A,3,05,13,14,15,17,24,30,,,,,,1.2,1.0,0.8,1*3E
$GNGSA,A,3,66,75,76,,,,,,,,,,1.2,1.0,0.8,2*3B
$GNGSA,A,3,04,19,27,,,,,,,,,,1.2,1.0,0.8,3*30
$GNGSA,A,3,10,,,,,,,,,,,,1.2,1.0,0.8,4*3F
$GNVTG,279.8,T,278.4,M,40.9,N,75.7,K,A*38
$GNRMC,155335.00,A,4811.777904,N,01500.066738,E,40.9,279.8,181022,1.4,E,A,V*6F
$GNGGA,155335.00,4811.777904,N,01500.066738,E,1,12,1.0,233.9,M,44.4,M,,*75
$GPGSV,3,1,10,05,36,224,23,13,82,302,21,14,62,087,18,15,49,298,25,1*62
$GPGSV,3,2,10,17,13,123,19,24,10,265,19,30,42,071,22,07,09,075,,1*69
$GPGSV,3,3,10,20,10,195,,23,10,326,,1*6C
$GLGSV,1,1,04,66,57,312,23,76,54,236,28,75,61,033,18,65,54,167,23,1*7D
$GAGSV,1,1,04,04,21,306,18,19,78,272,17,27,50,059,22,21,63,182,,7*7B
$GBGSV,2,1,06,10,36,061,20,25,31,060,20,05,18,127,,07,26,050,,1*7D
$GBGSV,2,2,06,20,35,306,,23,84,064,,1*7E
$GNGSA,A,3,05,13,14,15,17,24,30,,,,,,1.2,1.0,0.8,1*3E
$GNGSA,A,3,66,75,76,,,,,,,,,,1.2,1.0,0.8,2*3B
$GNGSA,A,3,04,19,27,,,,,,,,,,1.2,1.0,0.8,3*30
$GNGSA,A,3,10,,,,,,,,,,,,1.2,1.0,0.8,4*3F
$GNVTG,278.7,T,277.3,M,41.4,N,76.7,K,A*31
$GNRMC,155336.00,A,4811.779762,N,01500.050006,E,41.4,278.7,181022,1.4,E,A,V*61
$GNGGA,155336.00,4811.779762,N,01500.050006,E,1,12,1.0,233.7,M,44.4,M,,*77
$GPGSV,3,1,10,05,36,224,22,13,82,302,18,14,62,087,17,15,49,298,26,1*65
$GPGSV,3,2,10,17,13,123,14,24,10,265,19,30,42,071,22,07,09,075,,1*64
$GPGSV,3,3,10,20,10,195,,23,10,326,,1*6C
$GLGSV,1,1,04,66,57,312,17,76,54,236,26,75,61,033,18,65,54,167,23,1*74
$GAGSV,1,1,04,04,21,306,14,19,78,272,17,27,50,059,24,21,63,182,,7*71
$GBGSV,2,1,06,10,36,061,20,25,31,060,25,05,18,127,,07,26,050,,1*78
$GBGSV,2,2,06,20,35,306,,23,84,064,,1*7E
$GNGSA,A,3,05,13,14,15,17,24,30,,,,,,1.3,1.0,0.8,1*3F
$GNGSA,A,3,66,75,76,,,,,,,,,,1.3,1.0,0.8,2*3A
$GNGSA,A,3,04,19,27,,,,,,,,,,1.3,1.0,0.8,3*31
$GNVTG,279.1,T,277.7,M,40.6,N,75.2,K,A*37
$GNRMC,155337.00,A,4811.781970,N,01500.033949,E,40.6,279.1,181022,1.4,E,A,V*69
$GNGGA,155337.00,4811.781970,N,01500.033949,E,1,12,1.0,233.7,M,44.4,M,,*7B
$GPGSV,3,1,10,05,36,224,23,13,82,302,18,14,62,087,17,15,49,298,28,1*6A
$GPGSV,3,2,10,17,13,123,14,24,10,265,19,30,42,071,22,07,09,075,,1*64
$GPGSV,3,3,10,20,10,195,,23,10,326,,1*6C
$GLGSV,1,1,04,66,57,312,22,76,54,236,30,75,61,033,19,65,54,167,18,1*7C
$GAGSV,1,1,04,04,21,306,14,19,78,272,16,27,50,059,25,21,63,182,,7*71
$GBGSV,2,1,06,10,36,061,14,25,31,060,26,05,18,127,,07,26,050,,1*7C
$GBGSV,2,2,06,20,35,306,,23,84,064,,1*7E
$GNGSA,A,3,05,13,14,15,17,24,30,,,,,,1.2,1.0,0.8,1*3E
$GNGSA,A,3,66,75,76,,,,,,,,,,1.2,1.0,0.8,2*3B
$GNGSA,A,3,04,19,27,,,,,,,,,,1.2,1.0,0.8,3*30
$GNGSA,A,3,10,,,,,,,,,,,,1.2,1.0,0.8,4*3F
$GNVTG,279.7,T,278.3,M,41.4,N,76.6,K,A*3E
$GNRMC,155338.00,A,4811.784157,N,01500.016687,E,41.4,279.7,181022,1.4,E,A,V*61
$GNGGA,155338.00,4811.784157,N,01500.016687,E,1,12,1.0,234.0,M,44.4,M,,*76
$GPGSV,3,1,10,05,36,224,23,13,82,302,17,14,62,087,15,15,49,298,28,1*67
$GPGSV,3,2,10,17,13,123,15,24,10,265,19,30,42,071,23,07,09,075,,1*64
$GPGSV,3,3,10,20,10,195,,23,10,326,,1*6C
$GLGSV,1,1,04,66,57,312,20,76,54,236,32,75,61,033,23,65,54,167,18,1*75
$GAGSV,1,1,04,04,21,306,14,19,78,272,16,27,50,059,25,21,63,182,,7*71
$GBGSV,2,1,06,10,36,061,14,25,31,060,23,05,18,127,,07,26,050,,1*79
$GBGSV,2,2,06,20,35,306,,23,84,064,,1*7E
$GNGSA,A,3,05,13,14,15,17,24,30,,,,,,1.2,1.0,0.8,1*3E
$GNGSA,A,3,66,75,76,,,,,,,,,,1.2,1.0,0.8,2*3B
$GNGSA,A,3,04,19,27,,,,,,,,,,1.2,1.0,0.8,3*30
$GNGSA,A,3,10,,,,,,,,,,,,1.2,1.0,0.8,4*3F
$GNVTG,280.0,T,278.6,M,41.4,N,76.6,K,A*3A
$GNRMC,155339.00,A,4811.786597,N,01500.000227,E,41.4,280.0,181022,1.4,E,A,V*62
$GNGGA,155339.00,4811.786597,N,01500.000227,E,1,12,1.0,233.7,M,44.4,M,,*74
$GPGSV,3,1,10,05,36,224,24,13,82,302,23,14,62,087,19,15,49,298,30,1*62
$GPGSV,3,2,10,17,13,123,15,24,10,265,15,30,42,071,22,07,09,075,,1*69
$GPGSV,3,3,10,20,10,195,,23,10,326,,1*6C
$GLGSV,1,1,04,66,57,312,20,76,54,236,33,75,61,033,25,65,54,167,20,1*79
$GAGSV,1,1,04,04,21,306,14,19,78,272,16,27,50,059,23,21,63,182,,7*77
$GBGSV,2,1,06,10,36,061,17,25,31,060,22,05,18,127,,07,26,050,,1*7B
$GBGSV,2,2,06,20,35,306,,23,84,064,,1*7E
$GNGSA,A,3,05,13,14,15,17,24,30,,,,,,1.2,1.0,0.8,1*3E
$GNGSA,A,3,66,75,76,,,,,,,,,,1.2,1.0,0.8,2*3B
$GNGSA,A,3,04,19,27,,,,,,,,,,1.2,1.0,0.8,3*30
$GNGSA,A,3,10,,,,,,,,,,,,1.2,1.0,0.8,4*3F
$GNVTG,279.9,T,278.5,M,41.8,N,77.4,K,A*39
$GNRMC,155340.00,A,4811.788298,N,01459.982205,E,41.8,279.9,181022,1.4,E,A,V*67
$GNGGA,155340.00,4811.788298,N,01459.982205,E,1,12,1.0,233.9,M,44.4,M,,*7C
$GPGSV,3,1,10,05,36,224,23,13,82,302,21,14,62,087,19,15,49,298,29,1*6F
$GPGSV,3,2,10,17,13,123,15,24,10,265,15,30,42,071,20,07,09,075,,1*6B
$GPGSV,3,3,10,20,10,195,,23,10,326,,1*6C
$GLGSV,1,1,04,66,57,312,17,76,54,236,33,75,61,033,24,65,54,167,21,1*7D
$GAGSV,1,1,04,04,21,306,14,19,78,272,16,27,50,059,21,21,63,182,,7*75
$GBGSV,2,1,06,10,36,061,17,25,31,060,23,05,18,127,,07,26,050,,1*7A
$GBGSV,2,2,06,20,35,306,,23,84,064,,1*7E
$GNGSA,A,3,05,13,14,15,17,24,30,,,,,,1.2,1.0,0.8,1*3E
$GNGSA,A,3,66,75,76,,,,,,,,,,1.2,1.0,0.8,2*3B
$GNGSA,A,3,04,19,27,,,,,,,,,,1.2,1.0,0.8,3*30
$GNGSA,A,3,10,,,,,,,,,,,,1.2,1.0,0.8,4*3F
$GNVTG,280.7,T,279.3,M,40.3,N,74.7,K,A*3C
$GNRMC,155341.00,A,4811.791023,N,01459.965658,E,40.3,280.7,181022,1.4,E,A,V*6B
$GNGGA,155341.00,4811.791023,N,01459.965658,E,1,12,1.0,234.0,M,44.4,M,,*7C
$GPGSV,3,1,10,05,36,224,23,13,82,302,24,14,62,087,22,15,49,298,28,1*63
$GPGSV,3,2,10,17,13,123,17,24,10,265,17,30,42,071,19,07,09,075,,1*61
$GPGSV,3,3,10,20,10,195,,23,10,326,,1*6C
$GLGSV,1,1,04,66,57,312,22,76,54,236,35,75,61,033,31,65,54,167,21,1*79
$GAGSV,1,1,04,04,21,306,15,19,78,272,14,27,50,059,20,21,63,182,,7*77
$GBGSV,2,1,06,10,36,061,17,25,31,060,24,05,18,127,,07,26,050,,1*7D
$GBGSV,2,2,06,20,35,306,,23,84,064,,1*7E
$GNGSA,A,3,05,13,14,15,17,24,30,,,,,,1.2,1.0,0.8,1*3E
$GNGSA,A,3,66,75,76,,,,,,,,,,1.2,1.0,0.8,2*3B
$GNGSA,A,3,04,19,27,,,,,,,,,,1.2,1.0,0.8,3*30
$GNGSA,A,3,10,,,,,,,,,,,,1.2,1.0,0.8,4*3F
$GNVTG,283.2,T,281.8,M,40.3,N,74.7,K,A*36
$GNRMC,155342.00,A,4811.793617,N,01459.949457,E,40.3,283.2,181022,1.4,E,A,V*6E
$GNGGA,155342.00,4811.793617,N,01459.949457,E,1,12,1.0,234.1,M,44.4,M,,*7E
$GPGSV,3,1,10,05,36,224,21,13,82,302,24,14,62,087,24,15,49,298,27,1*68
$GPGSV,3,2,10,17,13,123,23,24,10,265,26,30,42,071,19,07,09,075,,1*64
$GPGSV,3,3,10,20,10,195,,23,10,326,,1*6C
$GLGSV,1,1,04,66,57,312,26,76,54,236,33,75,61,033,31,65,54,167,21,1*7B
$GAGSV,1,1,04,04,21,306,19,19,78,272,19,27,50,059,22,21,63,182,,7*74
$GBGSV,2,1,06,10,36,061,17,25,31,060,23,05,18,127,,07,26,050,,1*7A
$GBGSV,2,2,06,20,35,306,,23,84,064,,1*7E
$GNGSA,A,3,05,13,14,15,17,24,30,,,,,,1.2,1.0,0.8,1*3E
$GNGSA,A,3,66,75,76,,,,,,,,,,1.2,1.0,0.8,2*3B
$GNGSA,A,3,04,19,27,,,,,,,,,,1.2,1.0,0.8,3*30
$GNGSA,A,3,10,,,,,,,,,,,,1.2,1.0,0.8,4*3F
$GNVTG,286.8,T,285.4,M,40.0,N,74.1,K,A*34
$GNRMC,155343.00,A,4811.796297,N,01459.934614,E,40.0,286.8,181022,1.4,E,A,V*65
$GNGGA,155343.00,4811.796297,N,01459.934614,E,1,12,1.0,235.0,M,44.4,M,,*79
$GPGSV,3,1,10,05,36,224,24,13,82,302,23,14,62,087,24,15,49,298,23,1*6E
$GPGSV,3,2,10,17,13,123,20,24,10,265,24,30,42,071,19,07,09,075,,1*65
$GPGSV,3,3,10,20,10,195,,23,10,326,,1*6C
$GLGSV,1,1,04,66,57,312,29,76,54,236,30,75,61,033,29,65,54,167,14,1*78
$GAGSV,1,1,04,04,21,306,19,19,78,272,19,27,50,059,22,21,63,182,,7*74
$GBGSV,2,1,06,10,36,061,21,25,31,060,21,05,18,127,,07,26,050,,1*7D
$GBGSV,2,2,06,20,35,306,,23,84,064,,1*7E
$GNGSA,A,3,05,13,14,15,17,24,30,,,,,,1.2,1.0,0.8,1*3E
$GNGSA,A,3,66,75,76,,,,,,,,,,1.2,1.0,0.8,2*3B
$GNGSA,A,3,04,19,27,,,,,,,,,,1.2,1.0,0.8,3*30
$GNGSA,A,3,10,,,,,,,,,,,,1.2,1.0,0.8,4*3F
$GNVTG,290.1,T,288.7,M,40.5,N,74.9,K,A*39
$GNRMC,155344.00,A,4811.799965,N,01459.916929,E,40.5,290.1,181022,1.4,E,A,V*61
$GNGGA,155344.00,4811.799965,N,01459.916929,E,1,12,1.0,234.7,M,44.4,M,,*70
$GPGSV,3,1,10,05,36,224,18,13,82,302,24,14,62,087,21,15,49,298,23,1*63
$GPGSV,3,2,10,17,13,123,20,24,10,265,21,30,42,071,19,07,09,075,,1*60
$GPGSV,3,3,10,20,10,195,,23,10,326,,1*6C
$GLGSV,1,1,04,66,57,312,30,76,54,236,33,75,60,033,27,65,54,167,24,1*7F
$GAGSV,1,1,04,04,21,306,17,19,78,272,22,27,50,059,22,21,63,182,,7*72
$GBGSV,2,1,06,10,36,061,21,25,31,060,23,05,18,127,,07,26,050,,1*7F
$GBGSV,2,2,06,20,35,306,,23,84,064,,1*7E
$GNGSA,A,3,05,13,14,15,17,24,30,,,,,,1.2,1.0,0.8,1*3E
$GNGSA,A,3,66,75,76,,,,,,,,,,1.2,1.0,0.8,2*3B
$GNGSA,A,3,04,19,27,,,,,,,,,,1.2,1.0,0.8,3*30
$GNGSA,A,3,10,,,,,,,,,,,,1.2,1.0,0.8,4*3F
$GNVTG,291.8,T,290.4,M,40.5,N,74.9,K,A*3B
$GNRMC,155345.00,A,4811.803564,N,01459.900860,E,40.5,291.8,181022,1.4,E,A,V*62
$GNGGA,155345.00,4811.803564,N,01459.900860,E,1,12,1.0,234.4,M,44.4,M,,*78
$GPGSV,3,1,10,05,36,224,16,13,82,302,25,14,62,087,20,15,49,298,23,1*6D
$GPGSV,3,2,10,17,13,123,21,24,10,265,23,30,42,071,26,07,09,075,,1*6F
$GPGSV,3,3,10,20,10,195,,23,10,326,,1*6C
$GLGSV,1,1,04,66,57,312,28,76,54,236,34,75,60,033,25,65,54,167,23,1*74
$GAGSV,1,1,04,04,21,306,17,19,78,272,18,27,50,059,24,21,63,182,,7*7D
$GBGSV,2,1,06,10,36,061,19,25,31,060,25,05,18,127,,07,26,050,,1*72
$GBGSV,2,2,06,20,35,306,,23,84,064,,1*7E
$GNGSA,A,3,05,13,14,15,17,24,30,,,,,,1.2,1.0,0.8,1*3E
$GNGSA,A,3,66,75,76,,,,,,,,,,1.2,1.0,0.8,2*3B
$GNGSA,A,3,04,19,27,,,,,,,,,,1.2,1.0,0.8,3*30
$GNGSA,A,3,10,,,,,,,,,,,,1.2,1.0,0.8,4*3F
$GNVTG,292.5,T,291.1,M,41.2,N,76.3,K,A*3F
$GNRMC,155346.00,A,4811.807606,N,01459.885320,E,41.2,292.5,181022,1.4,E,A,V*69
$GNGGA,155346.00,4811.807606,N,01459.885320,E,1,12,1.0,234.3,M,44.4,M,,*7C
$GPGSV,3,1,10,05,36,224,15,13,82,302,25,14,62,087,20,15,49,298,24,1*69
$GPGSV,3,2,10,17,13,123,21,24,10,265,22,30,42,071,26,07,09,075,,1*6E
$GPGSV,3,3,10,20,10,195,,23,10,326,,1*6C
$GLGSV,1,1,04,66,57,312,28,76,54,236,33,75,60,033,23,65,54,167,20,1*76
$GAGSV,1,1,04,04,21,306,17,19,78,272,17,27,50,059,24,21,63,182,,7*72
$GBGSV,2,1,06,10,36,061,19,25,31,060,22,05,18,127,,07,26,050,,1*75
$GBGSV,2,2,06,20,35,306,,23,84,064,,1*7E
$GNGSA,A,3,05,13,14,15,17,24,30,,,,,,1.2,1.0,0.8,1*3E
$GNGSA,A,3,66,75,76,,,,,,,,,,1.2,1.0,0.8,2*3B
$GNGSA,A,3,04,19,27,,,,,,,,,,1.2,1.0,0.8,3*30
$GNGSA,A,3,10,,,,,,,,,,,,1.2,1.0,0.8,4*3F
$GNVTG,292.5,T,291.1,M,42.2,N,78.2,K,A*33
$GNRMC,155347.00,A,4811.812580,N,01459.868468,E,42.2,292.5,181022,1.4,E,A,V*6A
$GNGGA,155347.00,4811.812580,N,01459.868468,E,1,12,1.0,235.1,M,44.4,M,,*7F
$GPGSV,3,1,10,05,36,224,17,13,82,302,25,14,62,087,20,15,49,298,24,1*6B
$GPGSV,3,2,10,17,13,123,18,24,10,265,26,30,42,071,18,07,09,075,,1*6D
$GPGSV,3,3,10,20,10,195,,23,10,326,,1*6C
$GLGSV,1,1,04,66,57,312,28,76,54,236,29,75,60,033,20,65,54,167,20,1*7E
$GAGSV,1,1,04,04,21,306,17,19,78,272,17,27,50,059,18,21,63,182,,7*7D
$GBGSV,2,1,06,10,36,061,19,25,31,060,22,05,18,127,,07,26,050,,1*75
$GBGSV,2,2,06,20,35,306,,23,84,064,,1*7E
$GNGSA,A,3,05,13,14,15,17,24,30,,,,,,1.2,1.0,0.8,1*3E
$GNGSA,A,3,66,75,76,,,,,,,,,,1.2,1.0,0.8,2*3B
$GNGSA,A,3,04,19,27,,,,,,,,,,1.2,1.0,0.8,3*30
$GNGSA,A,3,10,,,,,,,,,,,,1.2,1.0,0.8,4*3F
$GNVTG,289.9,T,288.5,M,43.0,N,79.7,K,A*3E
$GNRMC,155348.00,A,4811.817025,N,01459.852432,E,43.0,289.9,181022,1.4,E,A,V*69
$GNGGA,155348.00,4811.817025,N,01459.852432,E,1,12,1.0,235.6,M,44.4,M,,*7E
$GPGSV,3,1,10,05,36,224,20,13,82,302,21,14,62,087,16,15,49,298,27,1*6D
$GPGSV,3,2,10,17,13,123,20,24,10,265,26,30,42,071,18,07,09,075,,1*66
